stop_id,stop_code,stop_name,stop_desc,stop_lat,stop_lon,zone_id,stop_url,location_type,parent_station,stop_timezone,wheelchair_boarding,platform_code
10 2,,広島バスセンター,,34.3963108,132.455932,10 2,,0,0001,,,2
10 3,,広島バスセンター,,34.3962905,132.4560001,10 3,,0,0001,,,3
10 4,,広島バスセンター,,34.3962673,132.4561076,10 4,,0,0001,,,4
10 5,,広島バスセンター,,34.3962396,132.4562271,10 5,,0,0001,,,5
10 50,,広島バスセンター,,34.3962116,132.4563394,10 50,,0,,,,
10 6,,広島バスセンター,,34.3962149,132.456321,10 6,,0,0001,,,6
10 7,,広島バスセンター,,34.3961946,132.4564186,10 7,,0,0001,,,7
10 8,,広島バスセンター,,34.3961692,132.4565235,10 8,,0,0001,,,8
10 9,,広島バスセンター,,34.3961504,132.4566216,10 9,,0,0001,,,9
1000 1,,玖波分れ,,34.3572802,132.2098017,1000 1,,0,,,,
1000 2,,玖波分れ,,34.3571531,132.2104708,1000 2,,0,,,,
1010 1,,河津,,34.3586081,132.2056314,1010 1,,0,,,,
1010 2,,河津,,34.358715,132.2050509,1010 2,,0,,,,
1020 1,,中山,,34.3615979,132.2000139,1020 1,,0,,,,
1020 2,,中山,,34.3617229,132.1995971,1020 2,,0,,,,
1030 1,,浜本工芸前,,34.3646899,132.1921161,1030 1,,0,,,,
1030 2,,浜本工芸前,,34.3644453,132.1923034,1030 2,,0,,,,
1040 1,,佐伯中学校前,,34.3656455,132.191017,1040 1,,0,,,,
1040 2,,佐伯中学校前,,34.3659685,132.1904116,1040 2,,0,,,,
105 1,,アルパーク,,34.37393792,132.3938797,105 1,,0,,,,
105 6,,アルパーク,,34.37365463,132.3945797,105 6,,0,,,,6
1050 1,,佐伯高校前,,34.3662219,132.1871682,1050 1,,0,,,,
1050 2,,佐伯高校前,,34.3661094,132.1870532,1050 2,,0,,,,
1060 1,,津田神社,,34.3660031,132.1827449,1060 1,,0,,,,
1060 2,,津田神社,,34.3659295,132.1826476,1060 2,,0,,,,
1070 1,,十王堂,,34.3661481,132.1789462,1070 1,,0,,,,
1070 2,,十王堂,,34.3660493,132.1788884,1070 2,,0,,,,
1075 1,,さいき文化センター,,34.3663406,132.1776747,1075 1,,0,,,,
1080 1,,佐伯支所,,34.3673471,132.1776869,1080 1,,0,,,,
1080 2,,佐伯支所,,34.3671761,132.1777091,1080 2,,0,,,,
1090 1,,津田,,34.3679368,132.1748553,1090 1,,0,,,,
130 1,,旭園,,34.365617,132.3662963,130 1,,0,,,,
130 2,,旭園,,34.3656089,132.3666664,130 2,,0,,,,
13320 1,,上飯室,,34.5539927,132.4484817,13320 1,,0,,,,
13320 2,,上飯室,,34.5545521,132.4486398,13320 2,,0,,,,
13330 1,,関の内,,34.5569805,132.4484416,13330 1,,0,,,,
13330 2,,関の内,,34.5574681,132.4480482,13330 2,,0,,,,
13340 1,,下烏帽子,,34.5625868,132.4501712,13340 1,,0,,,,
13340 2,,下烏帽子,,34.5626525,132.450117,13340 2,,0,,,,
13350 1,,上烏帽子,,34.5654917,132.4503766,13350 1,,0,,,,
13350 2,,上烏帽子,,34.5655746,132.4501699,13350 2,,0,,,,
13370 1,,杉の迫,,34.576827,132.4532737,13370 1,,0,,,,
13370 2,,杉の迫,,34.5768146,132.453131,13370 2,,0,,,,
13380 1,,鈴張市,,34.5791517,132.4555088,13380 1,,0,,,,
13380 2,,鈴張市,,34.5792578,132.4555301,13380 2,,0,,,,
13390 1,,鈴張,,34.5822758,132.4563326,13390 1,,0,,,,
13390 2,,鈴張,,34.5823098,132.4562533,13390 2,,0,,,,
13400 1,,鈴張神社,,34.5848386,132.4581614,13400 1,,0,,,,
13400 2,,鈴張神社,,34.5850572,132.4582947,13400 2,,0,,,,
13410 1,,下西谷,,34.5903515,132.4620175,13410 1,,0,,,,
13410 2,,下西谷,,34.5903462,132.4619445,13410 2,,0,,,,
13420 1,,中西谷,,34.595554,132.4616731,13420 1,,0,,,,
13420 2,,中西谷,,34.5955266,132.4616122,13420 2,,0,,,,
13430 1,,大正橋,,34.6013236,132.4606968,13430 1,,0,,,,
13430 2,,大正橋,,34.6012973,132.4605899,13430 2,,0,,,,
13440 1,,藤河内,,34.6035736,132.4581311,13440 1,,0,,,,
13440 2,,藤河内,,34.6032386,132.4585619,13440 2,,0,,,,
13450 1,,鈴張落合,,34.6049602,132.4561474,13450 1,,0,,,,
13450 2,,鈴張落合,,34.6050235,132.4560211,13450 2,,0,,,,
13460 1,,上西谷,,34.6088725,132.4604446,13460 1,,0,,,,
13460 2,,上西谷,,34.6089093,132.460392,13460 2,,0,,,,
13470 1,,柏尾,,34.6119273,132.4612015,13470 1,,0,,,,
13470 2,,柏尾,,34.6119021,132.4611035,13470 2,,0,,,,
13490 1,,久保角橋,,34.6250336,132.4551591,13490 1,,0,,,,
13490 2,,久保角橋,,34.6250755,132.4549202,13490 2,,0,,,,
13500 1,,ゆりかご荘前,,34.6264712,132.4520294,13500 1,,0,,,,
13500 2,,ゆりかご荘前,,34.6264746,132.4514533,13500 2,,0,,,,
13510 1,,豊平南小学校,,34.6303381,132.4511652,13510 1,,0,,,,
13510 2,,豊平南小学校,,34.630285,132.4510384,13510 2,,0,,,,
13520 1,,吉木口,,34.6324331,132.4515152,13520 1,,0,,,,
13520 2,,吉木口,,34.6325741,132.4514686,13520 2,,0,,,,
13530 1,,橋詰橋,,34.6392039,132.4524076,13530 1,,0,,,,
13530 2,,橋詰橋,,34.6391973,132.4523414,13530 2,,0,,,,
13540 1,,瀬山,,34.6438108,132.4523731,13540 1,,0,,,,
13540 2,,瀬山,,34.643765,132.4522788,13540 2,,0,,,,
13550 1,,龍頭山登山口,,34.6482699,132.445698,13550 1,,0,,,,
13550 2,,龍頭山登山口,,34.6481956,132.4456217,13550 2,,0,,,,
13560 1,,都志見,,34.6488648,132.4419637,13560 1,,0,,,,
13560 2,,都志見,,34.648785,132.4419142,13560 2,,0,,,,
13580 1,,龍頭神社前,,34.6496994,132.4318214,13580 1,,0,,,,
13580 2,,龍頭神社前,,34.6496194,132.4318222,13580 2,,0,,,,
13590 1,,都志見原,,34.6509214,132.4284421,13590 1,,0,,,,
13590 2,,都志見原,,34.6508025,132.4285714,13590 2,,0,,,,
13600 1,,掛札,,34.6541475,132.4227496,13600 1,,0,,,,
13600 2,,掛札,,34.6540898,132.4227203,13600 2,,0,,,,
13610 1,,細河内,,34.6532924,132.4161951,13610 1,,0,,,,
13610 2,,細河内,,34.6532239,132.4162332,13610 2,,0,,,,
13620 1,,細河内下,,34.6502908,132.4113698,13620 1,,0,,,,
13620 2,,細河内下,,34.6502296,132.4114346,13620 2,,0,,,,
13630 1,,都谷田の原,,34.648117,132.404798,13630 1,,0,,,,
13630 2,,都谷田の原,,34.6480524,132.4047882,13630 2,,0,,,,
13640 1,,戸谷,,34.649132,132.4007783,13640 1,,0,,,,
13640 2,,戸谷,,34.6491435,132.4007011,13640 2,,0,,,,
13650 1,,戸谷上,,34.6563795,132.4027603,13650 1,,0,,,,
13650 2,,戸谷上,,34.6563924,132.4026537,13650 2,,0,,,,
13660 1,,向原口,,34.6574941,132.4051711,13660 1,,0,,,,
13660 2,,向原口,,34.6575533,132.4050801,13660 2,,0,,,,
13670 1,,庄原口,,34.6611321,132.4080021,13670 1,,0,,,,
13670 2,,庄原口,,34.6611338,132.4079184,13670 2,,0,,,,
13680 1,,豊平支所,,34.6668982,132.4070596,13680 1,,0,,,,
13680 2,,豊平支所,,34.6669214,132.406971,13680 2,,0,,,,
13690 1,,琴谷,,34.6685154,132.4080271,13690 1,,0,,,,
13690 2,,琴谷,,34.6685233,132.4079167,13690 2,,0,,,,
13700 1,,琴谷車庫,,34.6703221,132.4067596,13700 1,,0,,,,
140 1,,海老山公園前,,34.3654429,132.3647265,140 1,,0,,,,
140 2,,海老山公園前,,34.36522165,132.3632327,140 2,,0,,,,
14740 1,,豊平学園下,,34.6531059,132.4244753,14740 1,,0,,,,
14760 1,,上大町,,34.4654824,132.4638678,14760 1,,0,,,,
14760 2,,上大町,,34.46567932,132.4632364,14760 2,,0,,,,
14770 1,,安小峠,,34.4683197,132.4595847,14770 1,,0,,,,
14770 2,,安小峠,,34.46781237,132.4600699,14770 2,,0,,,,
14780 1,,下相田,,34.4688541,132.4587263,14780 1,,0,,,,
14780 2,,下相田,,34.4691349,132.4580256,14780 2,,0,,,,
14790 1,,相田,,34.4709453,132.4558534,14790 1,,0,,,,
14790 2,,相田,,34.4712458,132.4552261,14790 2,,0,,,,
14800 1,,安田女子大入口,,34.4727738,132.452349,14800 1,,0,,,,
14800 2,,安田女子大入口,,34.4726884,132.4517362,14800 2,,0,,,,
14810 1,,日浦口,,34.4728431,132.4487451,14810 1,,0,,,,
14810 2,,日浦口,,34.4727028,132.4488943,14810 2,,0,,,,
14820 1,,安中央,,34.4728921,132.4454038,14820 1,,0,,,,
14820 2,,安中央,,34.47277826,132.4459042,14820 2,,0,,,,
14830 1,,安小学校,,34.4737013,132.4435532,14830 1,,0,,,,
14830 2,,安小学校,,34.47379477,132.443121,14830 2,,0,,,,
14840 1,,上安,,34.47424469,132.4411878,14840 1,,0,,,,
14840 2,,上安,,34.4742425,132.4400263,14840 2,,0,,,,
14850 1,,高取,,34.4744992,132.4378247,14850 1,,0,,,,
14850 2,,高取,,34.47391131,132.4364049,14850 2,,0,,,,
14860 1,,長楽寺,,34.4719835,132.4337459,14860 1,,0,,,,
14860 2,,長楽寺,,34.4713595,132.4329402,14860 2,,0,,,,
14870 1,,伴安,,34.4705782,132.4289723,14870 1,,0,,,,
14870 2,,伴安,,34.47012824,132.4283558,14870 2,,0,,,,
14880 1,,下向,,34.46701183,132.4241063,14880 1,,0,,,,1
14880 2,,下向,,34.4671606,132.4242365,14880 2,,0,,,,2
14880 3,,下向,,34.46784506,132.4232396,14880 3,,0,,,,3
14880 4,,下向,,34.4677096,132.4233885,14880 4,,0,,,,4
14890 1,,下伴,,34.4677335,132.4204861,14890 1,,0,,,,
14890 2,,下伴,,34.46761169,132.4196233,14890 2,,0,,,,
14900 1,,広陵学園入口,,34.46709504,132.4176568,14900 1,,0,,,,
14900 2,,広陵学園入口,,34.4670203,132.4178293,14900 2,,0,,,,
14910 1,,松宗,,34.46526188,132.416107,14910 1,,0,,,,
14910 2,,松宗,,34.46489525,132.4159737,14910 2,,0,,,,
14920 1,,三菱団地入口,,34.464043,132.4140859,14920 1,,0,,,,
14920 2,,三菱団地入口,,34.46401198,132.4145405,14920 2,,0,,,,
14920 3,,三菱団地入口,,34.4637127,132.4138922,14920 3,,0,,,,
14920 4,,三菱団地入口,,34.4632731,132.4138344,14920 4,,0,,,,
14940 1,,広域公園前駅,,34.4354832,132.4003853,14940 1,,0,,,,1
14940 2,,広域公園前駅,,34.435602,132.4001028,14940 2,,0,,,,2
14940 3,,広域公園前駅,,34.4347087,132.4006245,14940 3,,0,,,,3
14950 1,,中大塚,,34.4385322,132.4022668,14950 1,,0,,,,
14950 2,,中大塚,,34.439485,132.4020935,14950 2,,0,,,,
14960 1,,大塚駅,,34.4424763,132.4042591,14960 1,,0,,,,
14960 2,,大塚駅,,34.4420841,132.4043935,14960 2,,0,,,,
150 1,,佐伯区役所前,,34.3650281,132.3608619,150 1,,0,,,,
150 2,,佐伯区役所前,,34.3649093,132.3609654,150 2,,0,,,,
15050 1,,三菱団地下,,34.4600828,132.4118587,15050 1,,0,,,,
15050 2,,三菱団地下,,34.4603272,132.4115546,15050 2,,0,,,,
15060 1,,三菱団地中,,34.4596551,132.414064,15060 1,,0,,,,
15060 2,,三菱団地中,,34.4597018,132.413527,15060 2,,0,,,,
15070 1,,三菱団地上,,34.45724,132.4154914,15070 1,,0,,,,
15070 2,,三菱団地上,,34.4578944,132.4147453,15070 2,,0,,,,
15080 1,,鳴る谷,,34.4526818,132.4133693,15080 1,,0,,,,
15080 2,,鳴る谷,,34.4531021,132.4134981,15080 2,,0,,,,
15090 1,,中東口,,34.448406,132.4096342,15090 1,,0,,,,
15090 2,,中東口,,34.4479649,132.4093513,15090 2,,0,,,,
15110 1,,下向上,,34.4654953,132.4226064,15110 1,,0,,,,
15110 2,,下向上,,34.46556196,132.4225898,15110 2,,0,,,,
15480 1,,細坂上,,34.4671444,132.4100373,15480 1,,0,,,,
15480 2,,細坂上,,34.4671956,132.4097419,15480 2,,0,,,,
15490 1,,新畑,,34.470034,132.4079386,15490 1,,0,,,,
15490 2,,新畑,,34.4696008,132.4079578,15490 2,,0,,,,
15500 1,,下大下,,34.4814503,132.3993348,15500 1,,0,,,,
15500 2,,下大下,,34.4816587,132.3992065,15500 2,,0,,,,
15510 1,,大下,,34.4836523,132.3990385,15510 1,,0,,,,
15510 2,,大下,,34.483865,132.3988613,15510 2,,0,,,,
15520 1,,久地境原,,34.4879013,132.3985872,15520 1,,0,,,,
15520 2,,久地境原,,34.4878497,132.3984325,15520 2,,0,,,,
15530 1,,幸の神,,34.4915971,132.3977203,15530 1,,0,,,,
15530 2,,幸の神,,34.4915403,132.3975267,15530 2,,0,,,,
15540 1,,中田口,,34.4933324,132.3985777,15540 1,,0,,,,
15540 2,,中田口,,34.4933075,132.3984855,15540 2,,0,,,,
15550 1,,久地魚切,,34.4977499,132.3974208,15550 1,,0,,,,
15550 2,,久地魚切,,34.4978561,132.3973082,15550 2,,0,,,,
15690 1,,くすの木台下,,34.4992143,132.3950757,15690 1,,0,,,,
15690 2,,くすの木台下,,34.4999811,132.3945437,15690 2,,0,,,,
15700 1,,くすの木台中,,34.5022873,132.3926739,15700 1,,0,,,,
15700 2,,くすの木台中,,34.5025856,132.3914653,15700 2,,0,,,,
15710 1,,くすの木台,,34.5027784,132.3897485,15710 1,,0,,,,
15710 2,,くすの木台,,34.5018809,132.3894399,15710 2,,0,,,,
160 1,,海老園一丁目,,34.36453828,132.3566999,160 1,,0,,,,
160 2,,海老園一丁目,,34.36435496,132.3562999,160 2,,0,,,,
16110 1,,下萩原,,34.47866092,132.4435541,16110 1,,0,,,,
16110 2,,下萩原,,34.4793328,132.4432863,16110 2,,0,,,,
16120 1,,中萩原,,34.48136063,132.4434706,16120 1,,0,,,,
16120 2,,中萩原,,34.4819207,132.4437951,16120 2,,0,,,,
16130 1,,上萩原,,34.4855597,132.4417503,16130 1,,0,,,,
16130 2,,上萩原,,34.48532685,132.4417206,16130 2,,0,,,,
16140 1,,荒谷,,34.49224277,132.441487,16140 1,,0,,,,
16140 2,,荒谷,,34.4925149,132.4413652,16140 2,,0,,,,
16150 1,,安佐動物公園,,34.4959337,132.4424843,16150 1,,0,,,,
16150 2,,安佐動物公園,,34.496496,132.4428055,16150 2,,0,,,,
16160 1,,後山上,,34.49947536,132.4435365,16160 1,,0,,,,
16160 2,,後山上,,34.5006957,132.4426881,16160 2,,0,,,,
16170 1,,あさひが丘下,,34.50509137,132.4400032,16170 1,,0,,,,
16170 2,,あさひが丘下,,34.50440809,132.43902,16170 2,,0,,,,
16171 3,,あさひが丘下１,,34.50454143,132.4400865,16171 3,,0,,,,
16171 4,,あさひが丘下１,,34.505258,132.4390866,16171 4,,0,,,,
16180 1,,あさひが丘中,,34.50674115,132.4377366,16180 1,,0,,,,
16180 2,,あさひが丘中,,34.50734107,132.43687,16180 2,,0,,,,
16190 1,,あさひが丘上,,34.50904089,132.4366199,16190 1,,0,,,,
16190 2,,あさひが丘上,,34.5094075,132.4357367,16190 2,,0,,,,
16350 1,,県営あさひが丘住宅,,34.5018462,132.4365287,16350 1,,0,,,,
16350 2,,県営あさひが丘住宅,,34.50234159,132.4358703,16350 2,,0,,,,
16360 1,,あさひが丘１番,,34.50519124,132.4329871,16360 1,,0,,,,
16360 2,,あさひが丘１番,,34.50499126,132.4330038,16360 2,,0,,,,
16370 1,,あさひが丘２番,,34.507241,132.4321204,16370 1,,0,,,,
16370 2,,あさひが丘２番,,34.5081753,132.4318767,16370 2,,0,,,,
16380 1,,あさひが丘３番,,34.5092023,132.432889,16380 1,,0,,,,
16380 2,,あさひが丘３番,,34.50917415,132.4334202,16380 2,,0,,,,
170 1,,楽々園,,34.3638811,132.3515398,170 1,,0,,,,
170 2,,楽々園,,34.3637214,132.3510672,170 2,,0,,,,
19180 1,,五月が丘公園前,,34.424576,132.3991903,19180 1,,0,,,,
19180 2,,五月が丘公園前,,34.4245516,132.3994003,19180 2,,0,,,,
19190 1,,五月が丘一丁目中,,34.4196392,132.4038251,19190 1,,0,,,,
19200 1,,五月が丘三丁目中,,34.4243203,132.4045731,19200 1,,0,,,,
19300 1,,広島高等技術専門校前,,34.3900307,132.3976919,19300 1,,0,,,,
19300 2,,広島高等技術専門校前,,34.3899626,132.3979056,19300 2,,0,,,,
19310 1,,美鈴モール前,,34.39191921,132.3865628,19310 1,,0,,,,1
19310 2,,美鈴モール前,,34.39210249,132.3850129,19310 2,,0,,,,2
19310 3,,美鈴モール前,,34.39280243,132.3857295,19310 3,,0,,,,3
19312 1,,高井上,,34.3937768,132.369271,19312 1,,0,,,,
19312 2,,高井上,,34.3939127,132.3690279,19312 2,,0,,,,
19320 1,,美鈴が丘東三丁目,,34.39495218,132.3847295,19320 1,,0,,,,
19320 2,,美鈴が丘東三丁目,,34.39595207,132.3845628,19320 2,,0,,,,
19330 1,,山田団地下,,34.39941843,132.3877957,19330 1,,0,,,,
19330 2,,山田団地下,,34.39960174,132.3875457,19330 2,,0,,,,
19340 1,,山田団地,,34.39866853,132.3892456,19340 1,,0,,,,
19340 2,,山田団地,,34.39853522,132.3896956,19340 2,,0,,,,
19350 1,,山田団地車庫前,,34.3973479,132.391655,19350 1,,0,,,,
19350 2,,山田団地車庫前,,34.3973639,132.3917693,19350 2,,0,,,,
19360 1,,波出石,,34.38183641,132.3555992,19360 1,,0,,,,
19360 2,,波出石,,34.38180306,132.354516,19360 2,,0,,,,
19362 1,,坪井,,34.3764368,132.3448503,19362 1,,0,,,,
19362 2,,坪井,,34.37597019,132.3449004,19362 2,,0,,,,
19370 1,,ジ アウトレット 広島,,34.4105818,132.3990301,19370 1,,0,,,,1
19370 3,,ジ アウトレット 広島,,34.4103663,132.3989035,19370 3,,0,,,,3
19371 1,,そらの北,,34.4135322,132.401734,19371 1,,0,,,,1
19371 2,,そらの北,,34.4133781,132.4018744,19371 2,,0,,,,2
19390 1,,宮内河本,,34.3506146,132.3195937,19390 1,,0,,,,
19390 2,,宮内河本,,34.3487514,132.3188451,19390 2,,0,,,,
19400 1,,地御前三丁目,,34.34195665,132.3160876,19400 1,,0,,,,
19400 2,,地御前三丁目,,34.34200665,132.316371,19400 2,,0,,,,
19410 1,,阿品台入口,,34.3332208,132.3113052,19410 1,,0,,,,
19410 2,,阿品台入口,,34.3333878,132.3115521,19410 2,,0,,,,
19420 1,,阿品台中央,,34.328589,132.3089198,19420 1,,0,,,,
19420 2,,阿品台中央,,34.3287222,132.3088393,19420 2,,0,,,,
19430 1,,阿品台西,,34.32612485,132.3068725,19430 1,,0,,,,
19430 2,,阿品台西,,34.3262346,132.3067326,19430 2,,0,,,,
19450 1,,ふじタウン中,,34.3231304,132.3077183,19450 1,,0,,,,
19450 2,,ふじタウン中,,34.3227296,132.3072591,19450 2,,0,,,,
19460 1,,ふじタウン南,,34.322751,132.3111145,19460 1,,0,,,,
19460 2,,ふじタウン南,,34.3227163,132.3109035,19460 2,,0,,,,
19560 1,,八幡東小学校,,34.3923178,132.366192,19560 1,,0,,,,
19560 2,,八幡東小学校,,34.3933398,132.3663198,19560 2,,0,,,,
19570 1,,中地上,,34.39043566,132.3654813,19570 1,,0,,,,
19570 2,,中地上,,34.39071897,132.3653813,19570 2,,0,,,,
19580 1,,中地下,,34.3859607,132.3638446,19580 1,,0,,,,
19580 2,,中地下,,34.3860178,132.3636452,19580 2,,0,,,,
19590 1,,中地,,34.3877821,132.3646267,19590 1,,0,,,,
19590 2,,中地,,34.3882526,132.3645612,19590 2,,0,,,,
19610 1,,昭和台,,34.3750319,132.3675402,19610 1,,0,,,,
19610 2,,昭和台,,34.3755307,132.3676827,19610 2,,0,,,,
19620 1,,皆賀公園,,34.3728965,132.3661083,19620 1,,0,,,,
19620 2,,皆賀公園,,34.3733042,132.3661691,19620 2,,0,,,,
19630 1,,駅前橋,,34.3705878,132.3662322,19630 1,,0,,,,
19630 2,,駅前橋,,34.3710455,132.3659271,19630 2,,0,,,,
19640 1,,駅前通り,,34.3694224,132.3667724,19640 1,,0,,,,
19640 2,,駅前通り,,34.3692267,132.3667457,19640 2,,0,,,,
19720 1,,美土里,,34.7179132,132.6623342,19720 1,,0,,,,
19720 2,,美土里,,34.7182121,132.6622629,19720 2,,0,,,,
19730 1,,高宮,,34.7490899,132.7241433,19730 1,,0,,,,
19730 2,,高宮,,34.7492237,132.723801,19730 2,,0,,,,
19790 1,,森城団地入口,,34.567632,132.4497417,19790 1,,0,,,,
19790 2,,森城団地入口,,34.5677497,132.4496614,19790 2,,0,,,,
19800 1,,森城団地中,,34.5673662,132.4519504,19800 1,,0,,,,
19800 2,,森城団地中,,34.5675353,132.4519942,19800 2,,0,,,,
19810 1,,森城団地中央,,34.5687396,132.4536215,19810 1,,0,,,,
19810 2,,森城団地中央,,34.5688268,132.4535981,19810 2,,0,,,,
19820 1,,広島北工業団地,,34.5715846,132.4541701,19820 1,,0,,,,
19820 2,,広島北工業団地,,34.5713457,132.4539686,19820 2,,0,,,,
19831 1,,久地,,34.4896323,132.3963492,19831 1,,0,,,,
19831 2,,久地,,34.489373,132.3959247,19831 2,,0,,,,
19840 1,,沼田高校,,34.46036254,132.4238899,19840 1,,0,,,,
19950 2,,井口一丁目,,34.37783745,132.3907298,19950 2,,0,,,,
19960 1,,鈴が峰第三歩道橋,,34.3832203,132.3959624,19960 1,,0,,,,
19970 1,,鈴が峰第二歩道橋,,34.38118719,132.3962458,19970 1,,0,,,,
19980 1,,草津病院入口,,34.37827078,132.3929129,19980 1,,0,,,,
20100 1,,井口四丁目,,34.37678723,132.3717648,20100 1,,0,,,,
20100 2,,井口四丁目,,34.37652063,132.3739812,20100 2,,0,,,,
20170 1,,済生会広島病院前,,34.3513754,132.5181991,20170 1,,0,,,,
20170 2,,済生会広島病院前,,34.3516946,132.518589,20170 2,,0,,,,
20320 1,,山田入口,,34.4041884,132.3961266,20320 1,,0,,,,
20320 2,,山田入口,,34.4052383,132.394724,20320 2,,0,,,,
20400 1,,五月が丘四丁目中,,34.4276688,132.4050936,20400 1,,0,,,,
20436 1,,上沖,,34.41313334,132.3715464,20436 1,,0,,,,
20436 2,,上沖,,34.41245008,132.3713631,20436 2,,0,,,,
20437 1,,下沖,,34.4081135,132.3732873,20437 1,,0,,,,
20437 2,,下沖,,34.40918377,132.3717299,20437 2,,0,,,,
20437 3,,下沖,,34.407517316701602172081,132.3738631624726779326070,20437 3,,0,,,,マックスバリュ前
20438 1,,笹利,,34.4178328,132.3691964,20438 1,,0,,,,
20438 2,,笹利,,34.4189031,132.368634,20438 2,,0,,,,
20439 1,,野登呂橋,,34.4189221,132.3584517,20439 1,,0,,,,
20439 2,,野登呂橋,,34.4192067,132.3585951,20439 2,,0,,,,
20440 1,,藤の木団地入口,,34.4188048,132.3608287,20440 1,,0,,,,
20440 2,,藤の木団地入口,,34.4195493,132.3603191,20440 2,,0,,,,
20450 1,,藤の木一丁目集会所前,,34.4176637,132.3624104,20450 1,,0,,,,
20450 2,,藤の木一丁目集会所前,,34.4177318,132.3622732,20450 2,,0,,,,
20460 1,,近隣公園前,,34.4204739,132.3636004,20460 1,,0,,,,
20460 2,,近隣公園前,,34.4202245,132.3634612,20460 2,,0,,,,
20470 1,,児童公園前,,34.4232,132.3635821,20470 1,,0,,,,
20470 2,,児童公園前,,34.4237377,132.363497,20470 2,,0,,,,
20480 1,,藤の木団地,,34.4250098,132.3635826,20480 1,,0,,,,
20480 2,,藤の木団地,,34.4253163,132.3635067,20480 2,,0,,,,
20490 1,,五月が丘四丁目,,34.4285429,132.4036519,20490 1,,0,,,,
20500 1,,千代田,,34.674404,132.5407234,20500 1,,0,,,,
20500 2,,千代田,,34.6744113,132.540748,20500 2,,0,,,,
20540 1,,宮園一丁目,,34.35265536,132.3076712,20540 1,,0,,,,
20540 2,,宮園一丁目,,34.3531825,132.306438,20540 2,,0,,,,
20540 3,,宮園一丁目,,34.3539009,132.3061844,20540 3,,0,,,,
20550 1,,宮園中央,,34.35367183,132.3023049,20550 1,,0,,,,
20550 2,,宮園中央,,34.35440509,132.3030882,20550 2,,0,,,,
20555 1,,城山南,,34.3850135,132.3543329,20555 1,,0,,,,
20555 2,,城山南,,34.3849215,132.3542788,20555 2,,0,,,,
20560 1,,東観音台入口,,34.3836337,132.3466859,20560 1,,0,,,,
20560 2,,東観音台入口,,34.38401937,132.3474831,20560 2,,0,,,,
20570 1,,東観音台下,,34.38335272,132.3441501,20570 1,,0,,,,
20570 2,,東観音台下,,34.38305275,132.3444334,20570 2,,0,,,,
20580 1,,東観音台中央,,34.38606906,132.3422501,20580 1,,0,,,,
20580 2,,東観音台中央,,34.3865616,132.3419385,20580 2,,0,,,,
20582 1,,東観音台中,,34.38451924,132.3429001,20582 1,,0,,,,
20582 2,,東観音台中,,34.3846171,132.3427786,20582 2,,0,,,,
20590 1,,東観音台上,,34.38818548,132.3413001,20590 1,,0,,,,
20590 2,,東観音台上,,34.38876875,132.3409501,20590 2,,0,,,,
20600 1,,東観音台団地,,34.39111849,132.3403334,20600 1,,0,,,,
20600 2,,東観音台団地,,34.3904958,132.3404478,20600 2,,0,,,,
20610 1,,五日市駅南口,,34.36628829,132.3680489,20610 1,,0,,,,
20650 1,,広島北インター,,34.5456923,132.4487214,20650 1,,0,,,,
20650 2,,広島北インター,,34.5456796,132.4487306,20650 2,,0,,,,
20860 1,,坪井長野,,34.37875315,132.3407839,20860 1,,0,,,,
20860 2,,坪井長野,,34.3788285,132.3406628,20860 2,,0,,,,
20870 1,,鈴が峰住宅中,,34.3798919,132.3913751,20870 1,,0,,,,
20870 2,,鈴が峰住宅中,,34.37982058,132.3911963,20870 2,,0,,,,
20920 1,,宮園西,,34.3508362,132.3002516,20920 1,,0,,,,
20920 2,,宮園西,,34.3512193,132.3006954,20920 2,,0,,,,
20930 1,,宮園上,,34.3520192,132.2975206,20930 1,,0,,,,
20930 2,,宮園上,,34.3520741,132.2957145,20930 2,,0,,,,
20940 1,,四季が丘一丁目,,34.3507485,132.2947549,20940 1,,0,,,,
20940 2,,四季が丘一丁目,,34.3498251,132.2946109,20940 2,,0,,,,
20950 1,,四季が丘中央,,34.3477591,132.29378,20950 1,,0,,,,
20950 2,,四季が丘中央,,34.3475434,132.2938743,20950 2,,0,,,,
20960 1,,四季が丘南,,34.3452938,132.29505,20960 1,,0,,,,
20960 2,,四季が丘南,,34.3455638,132.294351,20960 2,,0,,,,
20970 1,,四季が丘,,34.3449637,132.2968267,20970 1,,0,,,,
20970 2,,四季が丘,,34.3451683,132.2973586,20970 2,,0,,,,
20980 1,,美鈴が丘高校,,34.3920811,132.3786037,20980 1,,0,,,,
20980 2,,美鈴が丘高校,,34.3917807,132.3785241,20980 2,,0,,,,
21030 1,,八木峠,,34.4841219,132.5014341,21030 1,,0,,,,
21030 2,,八木峠,,34.4841837,132.5011416,21030 2,,0,,,,
21040 1,,別所団地,,34.4904152,132.5043091,21040 1,,0,,,,
21040 2,,別所団地,,34.4910039,132.5044888,21040 2,,0,,,,
21090 1,,阿品台五丁目,,34.32950775,132.3025893,21090 1,,0,,,,
21090 2,,阿品台五丁目,,34.32940776,132.302406,21090 2,,0,,,,
21100 1,,宮園入口,,34.34912243,132.3091546,21100 1,,0,,,,
21100 2,,宮園入口,,34.34968903,132.3086379,21100 2,,0,,,,
21120 1,,坪野下,,34.5559398,132.3391246,21120 1,,0,,,,
21120 2,,坪野下,,34.55590085,132.3396258,21120 2,,0,,,,
21140 1,,学院入口,,34.3912186,132.4091334,21140 1,,0,,,,
21150 1,,来見,,34.5563495,132.3848896,21150 1,,0,,,,
21150 2,,来見,,34.556364,132.3849581,21150 2,,0,,,,
21250 1,,田方が丘団地,,34.3910396,132.3986348,21250 1,,0,,,,
21250 2,,田方が丘団地,,34.3923482,132.3976242,21250 2,,0,,,,
21270 1,,体育館前,,34.2504741,132.5634991,21270 1,,0,,,,1
21270 2,,体育館前,,34.2506786,132.5632952,21270 2,,0,,,,2
21270 3,,体育館前,,34.2516908,132.5630855,21270 3,,0,,,,3
21270 4,,体育館前,,34.2512274,132.5633782,21270 4,,0,,,,4
21350 1,,新井口駅,,34.37665427,132.3919964,21350 1,,0,,,,
21350 2,,新井口駅,,34.37668759,132.3917131,21350 2,,0,,,,
21360 1,,鈴が峰小学校下,,34.37985398,132.3952627,21360 1,,0,,,,
21370 1,,鈴が峰住宅東,,34.3836773,132.3944704,21370 1,,0,,,,
21370 2,,鈴が峰住宅東,,34.383417,132.3946321,21370 2,,0,,,,
21400 1,,追崎橋,,34.5626902,132.3910329,21400 1,,0,,,,
21400 2,,追崎橋,,34.5626365,132.3904132,21400 2,,0,,,,
21420 1,,五日市駅北口,,34.3671948,132.3673811,21420 1,,0,,,,1
21420 2,,五日市駅北口,,34.3670056,132.3677356,21420 2,,0,,,,2
21420 3,,五日市駅北口,,34.3672777,132.3682039,21420 3,,0,,,,
21470 1,,矢野南１丁目,,34.3444949,132.5308608,21470 1,,0,,,,
21470 2,,矢野南１丁目,,34.3437991,132.5325068,21470 2,,0,,,,
21480 1,,矢野南５丁目,,34.3388916,132.534915,21480 1,,0,,,,
21480 2,,矢野南５丁目,,34.33904,132.535131,21480 2,,0,,,,
21500 1,,下河内,,34.40778353,132.3494152,21500 1,,0,,,,
21500 2,,下河内,,34.40848344,132.3487652,21500 2,,0,,,,
21510 1,,彩が丘入口,,34.40808346,132.3471487,21510 1,,0,,,,
21510 2,,彩が丘入口,,34.40758349,132.3461488,21510 2,,0,,,,
21520 1,,彩が丘下,,34.4071726,132.3450425,21520 1,,0,,,,
21520 2,,彩が丘下,,34.40735015,132.3442823,21520 2,,0,,,,
21530 1,,彩が丘北,,34.4089087,132.3425965,21530 1,,0,,,,
21530 2,,彩が丘北,,34.4086634,132.3418531,21530 2,,0,,,,
21540 1,,彩が丘中,,34.40776671,132.3409326,21540 1,,0,,,,
21540 2,,彩が丘中,,34.40705013,132.3412826,21540 2,,0,,,,
21550 1,,彩が丘上,,34.4051354,132.3418178,21550 1,,0,,,,
21550 2,,彩が丘上,,34.4055637,132.3417629,21550 2,,0,,,,
21560 1,,彩が丘団地,,34.4032873,132.343616,21560 1,,0,,,,
21560 2,,彩が丘団地,,34.4037584,132.3435997,21560 2,,0,,,,
21610 1,,下河内集会所,,34.40571713,132.3523317,21610 1,,0,,,,
21610 2,,下河内集会所,,34.40550049,132.3526317,21610 2,,0,,,,
21640 1,,新宮苑,,34.3703414,132.3621515,21640 1,,0,,,,
21640 2,,新宮苑,,34.3704489,132.3613242,21640 2,,0,,,,
21720 1,,大林二丁目,,34.5489774,132.5382087,21720 1,,0,,,,
21730 1,,台,,34.5675434,132.5572422,21730 1,,0,,,,
21730 2,,台,,34.5680034,132.557538,21730 2,,0,,,,
21770 1,,四季が丘南口,,34.3407186,132.2994547,21770 1,,0,,,,
21770 2,,四季が丘南口,,34.3409907,132.3000506,21770 2,,0,,,,
21780 1,,佐東出張所口,,34.4703817,132.4836949,21780 1,,0,,,,
21780 2,,佐東出張所口,,34.4703254,132.4832288,21780 2,,0,,,,
21781 1,,緑井五丁目,,34.4664528,132.4787925,21781 1,,0,,,,
21781 2,,緑井五丁目,,34.4666141,132.4784751,21781 2,,0,,,,
21790 1,,松信園,,34.5749588,132.2431071,21790 1,,0,,,,
21790 2,,松信園,,34.5746168,132.2424367,21790 2,,0,,,,
21800 1,,広島インター入口,,34.46437972,132.4779519,21800 1,,0,,,,
21800 2,,広島インター入口,,34.46397975,132.477352,21800 2,,0,,,,
21820 1,,あさひが丘展望台入口,,34.5033888,132.4348921,21820 1,,0,,,,
21820 2,,あさひが丘展望台入口,,34.50365809,132.434437,21820 2,,0,,,,
21840 1,,安芸南高校北,,34.352195,132.5225142,21840 1,,0,,,,
21840 2,,安芸南高校北,,34.3523858,132.5226126,21840 2,,0,,,,
21851 1,,沼田ＰＡ,,34.4639998,132.4221486,21851 1,,0,,,,
21851 2,,沼田ＰＡ,,34.4629184,132.422677,21851 2,,0,,,,
21860 1,,絵下山入口,,34.3206797,132.5508358,21860 1,,0,,,,
21860 2,,絵下山入口,,34.3203388,132.5513475,21860 2,,0,,,,
21870 1,,寺屋敷,,34.3170511,132.5525666,21870 1,,0,,,,
21870 2,,寺屋敷,,34.317039,132.552657,21870 2,,0,,,,
21880 1,,山水苑,,34.3137299,132.5539789,21880 1,,0,,,,
21880 2,,山水苑,,34.3138939,132.5539169,21880 2,,0,,,,
21890 1,,夢ヶ丘入口,,34.31203072,132.5566857,21890 1,,0,,,,
21890 2,,夢ヶ丘入口,,34.3121892,132.5568394,21890 2,,0,,,,
21900 1,,夢ヶ丘中,,34.3144827,132.5576976,21900 1,,0,,,,
21900 2,,夢ヶ丘中,,34.3145289,132.557652,21900 2,,0,,,,
21910 1,,夢ヶ丘東,,34.3147944,132.5588521,21910 1,,0,,,,
21910 2,,夢ヶ丘東,,34.3148105,132.5590354,21910 2,,0,,,,
21920 1,,東明ハイツ入口,,34.3125002,132.562124,21920 1,,0,,,,
21920 2,,東明ハイツ入口,,34.3126126,132.5622048,21920 2,,0,,,,
21930 1,,百分,,34.31561381,132.5647515,21930 1,,0,,,,
21930 2,,百分,,34.315519,132.564826,21930 2,,0,,,,
21940 1,,押込,,34.3166104,132.5662524,21940 1,,0,,,,
21940 2,,押込,,34.316769,132.5665249,21940 2,,0,,,,
21950 1,,押込口,,34.3191729,132.5661969,21950 1,,0,,,,
21950 2,,押込口,,34.3202817,132.56602,21950 2,,0,,,,
21960 1,,中倉団地入口,,34.3213065,132.5654896,21960 1,,0,,,,
21960 2,,中倉団地入口,,34.3213277,132.5655914,21960 2,,0,,,,
21970 1,,中倉,,34.3230999,132.5666076,21970 1,,0,,,,
21970 2,,中倉,,34.3229791,132.5665991,21970 2,,0,,,,
22030 1,,市立大学前,,34.4386696,132.4130486,22030 1,,0,,,,
22030 2,,市立大学前,,34.4379392,132.4133342,22030 2,,0,,,,
22030 52,,市立大学前,,34.4401437,132.4132774,22030 52,,0,,,,
22040 1,,功労碑前,,34.4445209,132.4108994,22040 1,,0,,,,
22040 2,,功労碑前,,34.444474,132.4107452,22040 2,,0,,,,
22060 2,,上安駅,,34.47607789,132.4445875,22060 2,,0,,,,2
22060 4,,上安駅,,34.476227872958518226849,132.4448041064859808483742,22060 4,,0,,,,4
22080 1,,長楽寺駅,,34.473106,132.4310084,22080 1,,0,,,,
22080 2,,長楽寺駅,,34.472894,132.4312565,22080 2,,0,,,,
22090 1,,大原駅,,34.4633445,132.412672,22090 1,,0,,,,
22100 2,,中筋駅,,34.4510573,132.4772849,22100 2,,0,,,,
22100 3,,中筋駅,,34.450999,132.4776434,22100 3,,0,,,,
22160 1,,広島修道大学キャンパス,,34.4334241,132.4028463,22160 1,,0,,,,
22160 2,,広島修道大学キャンパス,,34.4333093,132.4031071,22160 2,,0,,,,
22190 1,,中須,,34.4585947,132.4748096,22190 1,,0,,,,
22190 2,,中須,,34.4587025,132.474655,22190 2,,0,,,,
22200 1,,梅林小学校前,,34.4789783,132.4912522,22200 1,,0,,,,
22200 2,,梅林小学校前,,34.4791767,132.491443,22200 2,,0,,,,
22210 1,,船山,,34.52392378,132.5026638,22210 1,,0,,,,
22210 2,,船山,,34.52410708,132.5017305,22210 2,,0,,,,
22240 1,,安佐出張所前,,34.545841,132.4337257,22240 1,,0,,,,
22240 2,,安佐出張所前,,34.5458949,132.4338882,22240 2,,0,,,,
22250 1,,安佐営業所,,34.5512781,132.4448662,22250 1,,0,,,,
22250 2,,安佐営業所,,34.5512857,132.4448546,22250 2,,0,,,,
22270 1,,下久日市,,34.5540646,132.3535939,22270 1,,0,,,,
22270 2,,下久日市,,34.55391797,132.3534415,22270 2,,0,,,,
22280 1,,丁川,,34.6076268,132.3242557,22280 1,,0,,,,
22280 2,,丁川,,34.6079034,132.3241046,22280 2,,0,,,,
22290 1,,下附地,,34.5655431,132.3209531,22290 1,,0,,,,
22290 2,,下附地,,34.5654921,132.3209976,22290 2,,0,,,,
22300 1,,鵜渡瀬,,34.6006742,132.3022456,22300 1,,0,,,,
22300 2,,鵜渡瀬,,34.6004041,132.3019124,22300 2,,0,,,,
22310 1,,上堀,,34.5863112,132.2895174,22310 1,,0,,,,
22310 2,,上堀,,34.5859971,132.2891199,22310 2,,0,,,,
22340 1,,烏帽子,,34.6172306,132.4617465,22340 1,,0,,,,
22340 3,,烏帽子,,34.6181482,132.4614855,22340 3,,0,,,,
22360 1,,豊平中学校前,,34.6525846,132.4248552,22360 1,,0,,,,
22360 2,,豊平中学校前,,34.6526216,132.4246552,22360 2,,0,,,,
22370 1,,戸谷中,,34.6541069,132.4014112,22370 1,,0,,,,
22370 2,,戸谷中,,34.6540287,132.4012535,22370 2,,0,,,,
22420 1,,下小峠,,34.4668057,132.4616734,22420 1,,0,,,,
22420 2,,下小峠,,34.4667261,132.4615016,22420 2,,0,,,,
22520 1,,美鈴が丘西五丁目,,34.3981312,132.3854293,22520 1,,0,,,,
22520 2,,美鈴が丘西五丁目,,34.3976117,132.3847421,22520 2,,0,,,,
22540 1,,西区役所前,,34.394674,132.434828,22540 1,,0,,,,
22540 2,,西区役所前,,34.3944512,132.4346652,22540 2,,0,,,,
22650 1,,宮内河田,,34.3495978,132.3173581,22650 1,,0,,,,
22650 2,,宮内河田,,34.3495957,132.3178894,22650 2,,0,,,,
22780 1,,東川角,,34.43686287,132.298918,22780 1,,0,,,,
22780 2,,東川角,,34.4367306,132.2988568,22780 2,,0,,,,
22790 1,,北谷,,34.4555095,132.2848085,22790 1,,0,,,,
22790 2,,北谷,,34.4555243,132.2847966,22790 2,,0,,,,
22800 1,,鈴が峰住宅,,34.380612,132.3930075,22800 1,,0,,,,
22800 2,,鈴が峰住宅,,34.38078718,132.3933628,22800 2,,0,,,,
22810 1,,鈴が峰住宅西,,34.3780687,132.3872001,22810 1,,0,,,,
22810 2,,鈴が峰住宅西,,34.378602,132.3885395,22810 2,,0,,,,
22820 1,,井口台東,,34.37842061,132.384297,22820 1,,0,,,,
22820 2,,井口台東,,34.37817063,132.383697,22820 2,,0,,,,
22830 1,,井口台中央,,34.37760395,132.3795807,22830 1,,0,,,,
22830 2,,井口台中央,,34.37745397,132.3796807,22830 2,,0,,,,
22840 1,,井口台西,,34.3776814,132.3766928,22840 1,,0,,,,
22840 2,,井口台西,,34.3776156,132.3763768,22840 2,,0,,,,
22850 1,,公園通り入口,,34.3790037,132.3758384,22850 1,,0,,,,
22850 2,,公園通り入口,,34.3792187,132.3757519,22850 2,,0,,,,
22860 1,,公園南,,34.3791256,132.3791054,22860 1,,0,,,,
22860 2,,公園南,,34.379189,132.3795453,22860 2,,0,,,,
22870 1,,井口台小学校前,,34.37987045,132.3837136,22870 1,,0,,,,
22870 2,,井口台小学校前,,34.3791807,132.3832915,22870 2,,0,,,,
22880 1,,公園北,,34.38045365,132.3797806,22880 1,,0,,,,
22880 2,,公園北,,34.38037033,132.3800806,22880 2,,0,,,,
22890 1,,井口台パークタウン,,34.38175354,132.3813971,22890 1,,0,,,,
22890 2,,井口台パークタウン,,34.3818535,132.3796305,22890 2,,0,,,,
22900 1,,皆賀,,34.37958679,132.3635653,22900 1,,0,,,,
22900 2,,皆賀,,34.37798699,132.3650986,22900 2,,0,,,,
22910 1,,杉並台団地下,,34.4306614,132.2951869,22910 1,,0,,,,
22910 2,,杉並台団地下,,34.4306034,132.2947539,22910 2,,0,,,,
22920 1,,杉並台団地中,,34.4311202,132.296699,22920 1,,0,,,,
22920 2,,杉並台団地中,,34.43056349,132.2959519,22920 2,,0,,,,
22930 1,,杉並台団地北,,34.4332146,132.298321,22930 1,,0,,,,
22940 1,,杉並台団地口,,34.4311834,132.2937316,22940 1,,0,,,,
22940 2,,杉並台団地口,,34.4315467,132.2936718,22940 2,,0,,,,
22950 1,,薬師が丘団地下,,34.3915363,132.3514296,22950 1,,0,,,,
22950 2,,薬師が丘団地下,,34.3925086,132.3515129,22950 2,,0,,,,
22960 1,,薬師が丘団地中,,34.3944527,132.3507366,22960 1,,0,,,,
22960 2,,薬師が丘団地中,,34.3952337,132.3499226,22960 2,,0,,,,
22970 1,,薬師が丘団地,,34.39656797,132.3442828,22970 1,,0,,,,
22970 2,,薬師が丘団地,,34.3965212,132.3442125,22970 2,,0,,,,
22980 1,,薬師が丘団地上,,34.3966693,132.3487244,22980 1,,0,,,,
22980 2,,薬師が丘団地上,,34.3975652,132.3477967,22980 2,,0,,,,
23010 2,,南区役所前,,34.3800257,132.4703244,23010 2,,0,,,,
23010 3,,南区役所前,,34.3796936,132.4702969,23010 3,,0,,,,
23020 1,,土居橋,,34.5311207,132.5173953,23020 1,,0,,,,
23020 2,,土居橋,,34.5315397,132.5175713,23020 2,,0,,,,
23030 1,,三入,,34.5368884,132.5229491,23030 1,,0,,,,
23030 2,,三入,,34.5366566,132.5225332,23030 2,,0,,,,
23040 1,,洞庭,,34.5519751,132.5422968,23040 1,,0,,,,
23040 2,,洞庭,,34.5523442,132.5425468,23040 2,,0,,,,
23050 1,,高平寺,,34.5930729,132.5862056,23050 1,,0,,,,
23050 2,,高平寺,,34.5929971,132.5859459,23050 2,,0,,,,
23060 1,,入江大橋,,34.6308104,132.6463756,23060 1,,0,,,,
23060 2,,入江大橋,,34.6313654,132.6469642,23060 2,,0,,,,
23200 1,,室積団地入口,,34.645689,132.4493907,23200 1,,0,,,,
23200 2,,室積団地入口,,34.6455167,132.4494473,23200 2,,0,,,,
23210 1,,上都志見,,34.6496228,132.4370288,23210 1,,0,,,,
23210 2,,上都志見,,34.6495543,132.4370116,23210 2,,0,,,,
23340 1,,高井,,34.3955074,132.3681079,23340 1,,0,,,,
23340 2,,高井,,34.3960209,132.3670442,23340 2,,0,,,,
23340 3,,高井,,34.39518519,132.3671976,23340 3,,0,,,,
23350 1,,美鈴が丘小学校,,34.3909893,132.3804544,23350 1,,0,,,,
23350 2,,美鈴が丘小学校,,34.390996,132.380788,23350 2,,0,,,,
23420 1,,阿品台東小学校,,34.3327706,132.3081133,23420 1,,0,,,,
23420 2,,阿品台東小学校,,34.33235753,132.3073721,23420 2,,0,,,,
23430 1,,阿品台公園前,,34.33075763,132.3035059,23430 1,,0,,,,1
23430 2,,阿品台公園前,,34.33114094,132.3044058,23430 2,,0,,,,2
23430 3,,阿品台公園前,,34.3313176,132.3045997,23430 3,,0,,,,3
23430 4,,阿品台公園前,,34.33070763,132.3031726,23430 4,,0,,,,4
23440 1,,廿日市西高校前,,34.3260839,132.3046105,23440 1,,0,,,,
23440 2,,廿日市西高校前,,34.3265541,132.3036656,23440 2,,0,,,,
23450 1,,阿品台北中央,,34.33307409,132.3057222,23450 1,,0,,,,
23450 2,,阿品台北中央,,34.3330313,132.305616,23450 2,,0,,,,
23460 1,,阿品台北,,34.3333741,132.3048618,23460 1,,0,,,,
23460 2,,阿品台北,,34.3331978,132.3046537,23460 2,,0,,,,
23480 1,,ふじタウン北,,34.3233986,132.3058321,23480 1,,0,,,,
23480 2,,ふじタウン北,,34.3231119,132.3058959,23480 2,,0,,,,
23550 1,,矢野駅前,,34.352206,132.5323502,23550 1,,0,,,,
23560 1,,矢野西四丁目,,34.3476087,132.5296848,23560 1,,0,,,,
23560 2,,矢野西四丁目,,34.3483258,132.5299918,23560 2,,0,,,,
23570 1,,矢野ニュータウン入口,,34.3433332,132.5288242,23570 1,,0,,,,
23570 2,,矢野ニュータウン入口,,34.34357687,132.5291365,23570 2,,0,,,,
23580 1,,矢野ニュータウン下,,34.3415199,132.5291244,23580 1,,0,,,,
23580 2,,矢野ニュータウン下,,34.3412293,132.5293915,23580 2,,0,,,,
23590 1,,矢野ニュータウン公園,,34.3395516,132.53025,23590 1,,0,,,,
23590 2,,矢野ニュータウン公園,,34.3392945,132.5305008,23590 2,,0,,,,
23600 1,,矢野ニュータウン中,,34.3377716,132.5325354,23600 1,,0,,,,
23600 2,,矢野ニュータウン中,,34.3378412,132.5325721,23600 2,,0,,,,
23610 1,,矢野ニュータウン上,,34.337661,132.5359118,23610 1,,0,,,,
23610 2,,矢野ニュータウン上,,34.3381612,132.5359945,23610 2,,0,,,,
23650 2,,広島空港,,34.4399979,132.9188033,23650 2,,0,,,,2
23670 1,,津田口,,34.3633247,132.1970965,23670 1,,0,,,,
23670 2,,津田口,,34.3632477,132.1970347,23670 2,,0,,,,
23730 1,,Ａシティ中央,,34.4465712,132.3954277,23730 1,,0,,,,
23730 2,,Ａシティ中央,,34.4463389,132.3953455,23730 2,,0,,,,
23740 1,,広域公園テニスコート,,34.44698,132.3908849,23740 1,,0,,,,1
23740 2,,広域公園テニスコート,,34.446711,132.3897028,23740 2,,0,,,,2
23740 3,,広域公園テニスコート,,34.4478002,132.390337,23740 3,,0,,,,3
23750 1,,せせらぎ公園前,,34.4493586,132.3907728,23750 1,,0,,,,
23750 2,,せせらぎ公園前,,34.4502698,132.390739,23750 2,,0,,,,
23790 1,,若林入口,,34.6223254,132.4578481,23790 1,,0,,,,
23790 2,,若林入口,,34.6222275,132.4578218,23790 2,,0,,,,
23800 1,,佐伯区民文化センター前,,34.3809199,132.358799,23800 1,,0,,,,
23800 2,,佐伯区民文化センター前,,34.3803533,132.3594656,23800 2,,0,,,,
23840 1,,ＪＲ阿品駅,,34.3231343,132.314519,23840 1,,0,,,,
23870 1,,安芸高田警察署,,34.6646309,132.7078817,23870 1,,0,,,,
23870 2,,安芸高田警察署,,34.6645873,132.7078576,23870 2,,0,,,,
23880 1,,新町下,,34.665833,132.7059083,23880 1,,0,,,,
23880 2,,新町下,,34.6657766,132.705907,23880 2,,0,,,,
23890 1,,安芸高田市役所前,,34.6662759,132.7050404,23890 1,,0,,,,
23890 2,,安芸高田市役所前,,34.666475,132.7042881,23890 2,,0,,,,
23900 1,,高取駅,,34.47536119,132.4382714,23900 1,,0,,,,
23900 2,,高取駅,,34.47507788,132.4383547,23900 2,,0,,,,
23910 1,,日赤看護大学,,34.3346902,132.3096682,23910 1,,0,,,,
23920 1,,五日市中央二丁目,,34.3707049,132.3559624,23920 1,,0,,,,
23920 2,,五日市中央二丁目,,34.3707452,132.355349,23920 2,,0,,,,
23930 1,,五日市中央公民館,,34.371681,132.3521211,23930 1,,0,,,,
23930 2,,五日市中央公民館,,34.3715429,132.3522793,23930 2,,0,,,,
23950 1,,上平木,,34.4508389,132.412303,23950 1,,0,,,,
23950 2,,上平木,,34.4508769,132.4121894,23950 2,,0,,,,
23960 1,,中地大橋,,34.38330302,132.361482,23960 1,,0,,,,
23960 2,,中地大橋,,34.38306971,132.360982,23960 2,,0,,,,
24010 1,,戸河内ＩＣバスセンター,,34.5753044,132.2690347,24010 1,,0,,,,
24010 2,,戸河内ＩＣバスセンター,,34.5753089,132.2690426,24010 2,,0,,,,
24020 1,,廿日市市役所,,34.3483328,132.3324832,24020 1,,0,,,,
24020 2,,廿日市市役所,,34.3483919,132.332612,24020 2,,0,,,,
24030 1,,五日市五丁目口,,34.3702418,132.3582527,24030 1,,0,,,,
24030 2,,五日市五丁目口,,34.3701788,132.3584863,24030 2,,0,,,,
24140 1,,沼田料金所前,,34.4363861,132.4101824,24140 1,,0,,,,
24140 2,,沼田料金所前,,34.4363698,132.4099095,24140 2,,0,,,,
24150 1,,利松一丁目,,34.3973115,132.3644405,24150 1,,0,,,,
24150 2,,利松一丁目,,34.3972585,132.3643327,24150 2,,0,,,,
24230 1,,千同,,34.38021979,132.3484332,24230 1,,0,,,,
24230 2,,千同,,34.3798865,132.3485499,24230 2,,0,,,,
24300 1,,免許センター,,34.4150737,132.3921129,24300 1,,0,,,,
24430 1,,佐方,,34.3667044,132.3314424,24430 1,,0,,,,
24430 2,,佐方,,34.36663762,132.3319352,24430 2,,0,,,,
24490 1,,白川上,,34.4321725,132.3074626,24490 1,,0,,,,
24490 2,,白川上,,34.4314946,132.3072125,24490 2,,0,,,,
24590 1,,平岩陸橋,,34.4224717,132.3934563,24590 1,,0,,,,
24590 2,,平岩陸橋,,34.4226194,132.3933076,24590 2,,0,,,,
24600 1,,石内南二丁目,,34.4164276,132.3907857,24600 1,,0,,,,
24600 2,,石内南二丁目,,34.4167215,132.3907289,24600 2,,0,,,,
24605 1,,石内南四丁目,,34.4143196,132.3900852,24605 1,,0,,,,
24605 2,,石内南四丁目,,34.4143113,132.3899453,24605 2,,0,,,,
24610 1,,四季が丘北,,34.34940543,132.2916393,24610 1,,0,,,,
24610 2,,四季が丘北,,34.3488633,132.2913793,24610 2,,0,,,,
24620 1,,四季が丘上,,34.34738897,132.2909895,24620 1,,0,,,,
24620 2,,四季が丘上,,34.3477223,132.2910119,24620 2,,0,,,,
24660 1,,田方西,,34.38445349,132.3951958,24660 1,,0,,,,
24710 1,,城南中学校前,,34.4752416,132.4882387,24710 1,,0,,,,
24710 2,,城南中学校前,,34.4764086,132.4888761,24710 2,,0,,,,
24720 1,,下浜ヶ谷,,34.5594559,132.5490518,24720 1,,0,,,,
24720 2,,下浜ヶ谷,,34.5595089,132.5489029,24720 2,,0,,,,
24770 1,,もみじ通り,,34.456177,132.3928486,24770 1,,0,,,,
24770 2,,もみじ通り,,34.4560335,132.3928372,24770 2,,0,,,,
24780 1,,花の季台中央公園,,34.45368,132.3922854,24780 1,,0,,,,
24780 2,,花の季台中央公園,,34.4536175,132.3920051,24780 2,,0,,,,
24790 1,,けやき通り,,34.4516136,132.3910946,24790 1,,0,,,,
24790 2,,けやき通り,,34.4522667,132.3910427,24790 2,,0,,,,
24800 1,,花の季台,,34.4554173,132.3900132,24800 1,,0,,,,
24800 2,,花の季台,,34.4556051,132.3904855,24800 2,,0,,,,
24820 1,,旭橋西,,34.3911137,132.4242093,24820 1,,0,,,,
24820 2,,旭橋西,,34.3905869,132.4243015,24820 2,,0,,,,
24840 1,,セントラルシティ入口,,34.4461622,132.3840557,24840 1,,0,,,,
24840 2,,セントラルシティ入口,,34.4459386,132.3840997,24840 2,,0,,,,
24850 1,,セントラルシティ中央,,34.4456554,132.381275,24850 1,,0,,,,
24850 2,,セントラルシティ中央,,34.4459677,132.3803559,24850 2,,0,,,,
24860 1,,こころ入口,,34.4478802,132.3803392,24860 1,,0,,,,
24860 2,,こころ入口,,34.4478713,132.3800758,24860 2,,0,,,,
24870 1,,伴南小学校,,34.4510863,132.3842733,24870 1,,0,,,,
24870 2,,伴南小学校,,34.4509601,132.3843012,24870 2,,0,,,,
24880 1,,こころ第一公園前,,34.4509029,132.3788774,24880 1,,0,,,,
24880 2,,こころ第一公園前,,34.4507838,132.3788524,24880 2,,0,,,,
24881 1,,こころ産業団地入口,,34.4529645,132.3826972,24881 1,,0,,,,
24881 2,,こころ産業団地入口,,34.4532626,132.3817844,24881 2,,0,,,,
24882 1,,こころ産業団地中,,34.45572901,132.3843934,24882 1,,0,,,,
24882 2,,こころ産業団地中,,34.455829,132.3842934,24882 2,,0,,,,
24883 1,,こころ産業団地,,34.4553668,132.3818765,24883 1,,0,,,,
24883 2,,こころ産業団地,,34.4558062,132.3821466,24883 2,,0,,,,
24890 1,,ナタリーマリナタウン,,34.3216323,132.3163606,24890 1,,0,,,,
24900 1,,広電阿品駅,,34.3218115,132.3147952,24900 1,,0,,,,
24910 1,,こころ団地西,,34.4513288,132.3765872,24910 1,,0,,,,
24910 2,,こころ団地西,,34.4512175,132.3765485,24910 2,,0,,,,
24915 1,,伴南五丁目,,34.4490742,132.3754548,24915 1,,0,,,,
24915 2,,伴南五丁目,,34.449542,132.3756354,24915 2,,0,,,,
24920 1,,こころ西風梅苑,,34.4470356,132.3750611,24920 1,,0,,,,
24920 2,,こころ西風梅苑,,34.4470234,132.3752085,24920 2,,0,,,,
24921 1,,枝垂桜通り,,34.4439244,132.381019,24921 1,,0,,,,
24921 2,,枝垂桜通り,,34.4442352,132.3811469,24921 2,,0,,,,
24922 1,,こころ南中央,,34.4415882,132.3826668,24922 1,,0,,,,
24922 10,,こころ南中央,,34.4416158,132.382658,24922 10,,0,,,,
24923 1,,こころゆきやなぎ公園,,34.4375082,132.3820672,24923 1,,0,,,,
24923 10,,こころゆきやなぎ公園,,34.4374342,132.3820437,24923 10,,0,,,,
24924 1,,こころ南,,34.4356104,132.3815153,24924 1,,0,,,,
24926 1,,石内北小学校前,,34.4417761,132.3857824,24926 1,,0,,,,
24927 1,,こころ展望公園入口,,34.4383363,132.3856193,24927 1,,0,,,,
24928 1,,こころ第Ⅲ産業用地,,34.4350695,132.3854295,24928 1,,0,,,,
24930 1,,リハビリセンター前,,34.4490088,132.3839807,24930 1,,0,,,,
24940 1,,大宮,,34.4194799,132.4575413,24940 1,,0,,,,
24940 2,,大宮,,34.4191342,132.4569777,24940 2,,0,,,,
24960 7,,立町,,34.394736862801007634332,132.460456559002022485144,24960 7,,0,,,,7
24970 1,,豊平病院,,34.6282656,132.4492487,24970 1,,0,,,,
24980 1,,加計ＢＳ,,34.5770056,132.328776,24980 1,,0,,,,
24980 2,,加計ＢＳ,,34.5762276,132.329588,24980 2,,0,,,,
24990 1,,箕角,,34.574247,132.2603776,24990 1,,0,,,,
24990 2,,箕角,,34.5741664,132.2603856,24990 2,,0,,,,
25070 1,,中広町,,34.4020927,132.4431937,25070 1,,0,,,,
25070 2,,中広町,,34.40196912,132.4428577,25070 2,,0,,,,
25090 1,,こころ北公園,,34.4486671,132.3844153,25090 1,,0,,,,
25090 2,,こころ北公園,,34.4486855,132.3843299,25090 2,,0,,,,
25120 1,,田方東陽台,,34.398803,132.397511,25120 1,,0,,,,
25120 2,,田方東陽台,,34.3979765,132.3973425,25120 2,,0,,,,
25140 2,,中広二丁目,,34.4028974,132.442081,25140 2,,0,,,,
25150 2,,マツダスタジアム前,,34.3902876,132.4845899,25150 2,,0,,,,
25160 1,,矢野駅入口,,34.3471913,132.5286701,25160 1,,0,,,,
25160 2,,矢野駅入口,,34.3470875,132.5289003,25160 2,,0,,,,
25170 1,,矢野新町,,34.3542288,132.5210385,25170 1,,0,,,,
25170 2,,矢野新町,,34.3544661,132.5211004,25170 2,,0,,,,
25180 1,,火ノ原,,34.33266204,132.5672839,25180 1,,0,,,,
25180 2,,火ノ原,,34.3328703,132.5683758,25180 2,,0,,,,
25190 1,,東明ハイツ,,34.3119693,132.5621022,25190 1,,0,,,,
25190 2,,東明ハイツ,,34.3124969,132.5623954,25190 2,,0,,,,
25200 1,,本庄,,34.3086045,132.561505,25200 1,,0,,,,
25200 2,,本庄,,34.3085002,132.5613624,25200 2,,0,,,,
25210 1,,泉ヶ丘団地,,34.306711,132.5599277,25210 1,,0,,,,
25210 2,,泉ヶ丘団地,,34.3064613,132.5594222,25210 2,,0,,,,
25220 1,,水源池前,,34.304761,132.559135,25220 1,,0,,,,
25220 2,,水源池前,,34.3046649,132.5589611,25220 2,,0,,,,
25230 1,,北原,,34.3006963,132.5573579,25230 1,,0,,,,
25230 2,,北原,,34.3009075,132.5569952,25230 2,,0,,,,
25239 1,,昭和市民センター前,,34.2960419,132.5578324,25239 1,,0,,,,
25239 2,,昭和市民センター前,,34.2961458,132.5577157,25239 2,,0,,,,
25240 1,,昭和市民センター,,34.2956487,132.5565009,25240 1,,0,,,,
25240 2,,昭和市民センター,,34.2946766,132.5556625,25240 2,,0,,,,
25241 1,,昭和市民センター西,,34.2959779,132.555625,25241 1,,0,,,,
25260 1,,上中,,34.416569,132.3859241,25260 1,,0,,,,
25260 2,,上中,,34.4161666,132.3858451,25260 2,,0,,,,
25280 1,,下中,,34.4119066,132.3792547,25280 1,,0,,,,
25280 2,,下中,,34.4117342,132.3793579,25280 2,,0,,,,
25300 1,,ふじが丘団地入口,,34.4716125,132.4308196,25300 1,,0,,,,
25300 2,,ふじが丘団地入口,,34.47174478,132.4309055,25300 2,,0,,,,
25310 1,,尾淵,,34.5555199,132.3939612,25310 1,,0,,,,
25310 2,,尾淵,,34.5555223,132.3940051,25310 2,,0,,,,
25320 1,,さくら野団地上,,34.3226094,132.5734005,25320 1,,0,,,,
25320 2,,さくら野団地上,,34.3225105,132.5727839,25320 2,,0,,,,
25330 1,,さくら野団地下,,34.3224434,132.5695401,25330 1,,0,,,,
25330 2,,さくら野団地下,,34.3227082,132.5693262,25330 2,,0,,,,
25340 1,,熊野高校前,,34.3245924,132.5755861,25340 1,,0,,,,
25340 2,,熊野高校前,,34.3245541,132.5754364,25340 2,,0,,,,
25350 1,,皇帝ハイツ入口,,34.3277382,132.5778049,25350 1,,0,,,,
25350 2,,皇帝ハイツ入口,,34.3268267,132.5769357,25350 2,,0,,,,
25370 1,,上條橋東,,34.2991076,132.5586371,25370 1,,0,,,,
25380 1,,勤住橋,,34.2976176,132.5608849,25380 1,,0,,,,
25390 1,,仲間ヶ原,,34.2955759,132.5611213,25390 1,,0,,,,
25390 2,,仲間ヶ原,,34.2957237,132.5611043,25390 2,,0,,,,
25420 1,,杉並台団地東,,34.430459,132.2980866,25420 1,,0,,,,
25430 1,,本通８丁目,,34.25093765,132.5791867,25430 1,,0,,,,
25430 2,,本通８丁目,,34.25113764,132.5795033,25430 2,,0,,,,
25440 1,,西畑,,34.2529675,132.5827643,25440 1,,0,,,,
25440 2,,西畑,,34.2533565,132.5844009,25440 2,,0,,,,
25450 1,,中畑,,34.250648,132.5930999,25450 1,,0,,,,
25450 2,,中畑,,34.2507616,132.5932467,25450 2,,0,,,,
25460 1,,原,,34.2476802,132.597122,25460 1,,0,,,,
25460 2,,原,,34.2478299,132.5972246,25460 2,,0,,,,
25480 1,,阿賀駅前,,34.2368175,132.6009381,25480 1,,0,,,,
25480 2,,阿賀駅前,,34.2370985,132.6007753,25480 2,,0,,,,
25480 4,,阿賀駅前,,34.2366379,132.6001857,25480 4,,0,,,,
25510 1,,先小倉,,34.2349212,132.6064591,25510 1,,0,,,,
25510 2,,先小倉,,34.2352837,132.6065741,25510 2,,0,,,,
25520 1,,広市民センター,,34.2329892,132.6153018,25520 1,,0,,,,
25520 2,,広市民センター,,34.23327,132.6152373,25520 2,,0,,,,
25530 1,,広交叉点(広交叉点東),広交叉点東,34.2306685,132.6236689,25530 1,,0,,,,
25530 2,,広交叉点(広交叉点東),広交叉点東,34.2311153,132.6227896,25530 2,,0,,,,
25530 3,,広交叉点(広交叉点北),広交叉点北,34.2319572,132.6226602,25530 3,,0,,,,
25530 4,,広交叉点(広交叉点北),広交叉点北,34.2317591,132.6223546,25530 4,,0,,,,
25540 1,,広駅前,,34.2292314,132.6283787,25540 1,,0,,,,
25540 2,,広駅前,,34.2291313,132.629214,25540 2,,0,,,,
25550 1,,東のりば,,34.226455,132.6375042,25550 1,,0,,,,
25550 2,,東のりば,,34.2262066,132.6387973,25550 2,,0,,,,
25550 3,,東のりば,,34.2262061,132.6387976,25550 3,,0,,,,
25560 1,,郷,,34.2432044,132.5970838,25560 1,,0,,,,
25560 2,,郷,,34.2426445,132.597311,25560 2,,0,,,,
3000 1,,ゆめタウン廿日市,,34.3462698,132.3341565,3000 1,,0,,,,
3140 1,,五月が丘一丁目,,34.4180723,132.4017754,3140 1,,0,,,,
3150 1,,五月が丘二丁目,,34.4217351,132.4005539,3150 1,,0,,,,
3160 1,,五月が丘三丁目,,34.4259686,132.4012263,3160 1,,0,,,,
3190 1,,広島工大入口,,34.3674003,132.3495048,3190 1,,0,,,,
3190 2,,広島工大入口,,34.367571,132.3493313,3190 2,,0,,,,
3200 1,,坪井公民館,,34.3742046,132.3522271,3200 1,,0,,,,
3200 2,,坪井公民館,,34.3736976,132.3518947,3200 2,,0,,,,
3210 1,,千同橋,,34.3772013,132.3534325,3210 1,,0,,,,
3210 2,,千同橋,,34.3767911,132.3531565,3210 2,,0,,,,
3220 1,,岡の下橋,,34.3789825,132.3541516,3220 1,,0,,,,
3220 2,,岡の下橋,,34.3797985,132.3543795,3220 2,,0,,,,
3230 1,,地毛,,34.3828671,132.3553314,3230 1,,0,,,,
3230 2,,地毛,,34.3836475,132.3554997,3230 2,,0,,,,
3240 1,,城山,,34.3872614,132.3560391,3240 1,,0,,,,
3240 2,,城山,,34.3864013,132.3561052,3240 2,,0,,,,
3250 1,,保井田,,34.3908353,132.3561832,3250 1,,0,,,,
3250 2,,保井田,,34.3905164,132.3559257,3250 2,,0,,,,
3260 1,,八幡学校,,34.3928084,132.3573976,3260 1,,0,,,,
3260 2,,八幡学校,,34.3924932,132.3570676,3260 2,,0,,,,
3270 1,,寺地,,34.3948595,132.3584358,3270 1,,0,,,,
3270 2,,寺地,,34.3954628,132.3584952,3270 2,,0,,,,
3280 1,,八幡,,34.3986297,132.3595354,3280 1,,0,,,,
3280 2,,八幡,,34.3982526,132.3593124,3280 2,,0,,,,
3290 1,,三和中学入口,,34.40030118,132.359998,3290 1,,0,,,,
3290 2,,三和中学入口,,34.40088444,132.359598,3290 2,,0,,,,
3290 3,,三和中学入口,,34.40050116,132.3602979,3290 3,,0,,,,
3400 1,,川坂,,34.4038918,132.3546134,3400 1,,0,,,,
3400 2,,川坂,,34.4036931,132.3545607,3400 2,,0,,,,
3410 1,,河内下城,,34.4096001,132.355048,3410 1,,0,,,,
3410 2,,河内下城,,34.40973342,132.3549313,3410 2,,0,,,,
3420 1,,河内農協,,34.4135266,132.3556538,3420 1,,0,,,,
3420 2,,河内農協,,34.41326638,132.3553144,3420 2,,0,,,,
3430 1,,原田橋,,34.4165371,132.3564151,3430 1,,0,,,,
3430 2,,原田橋,,34.4165593,132.3563285,3430 2,,0,,,,
3440 1,,古野薬師堂前,,34.4218401,132.3572907,3440 1,,0,,,,
3440 2,,古野薬師堂前,,34.421511,132.3572631,3440 2,,0,,,,
3450 1,,高橋,,34.4239452,132.354817,3450 1,,0,,,,
3450 2,,高橋,,34.423804,132.3545284,3450 2,,0,,,,
3460 1,,魚切下,,34.4252582,132.3500469,3460 1,,0,,,,
3460 2,,魚切下,,34.4249867,132.3500837,3460 2,,0,,,,
3470 1,,魚切,,34.4261315,132.347938,3470 1,,0,,,,
3470 2,,魚切,,34.4259994,132.3479122,3470 2,,0,,,,
3480 1,,魚切上,,34.4259805,132.3447992,3480 1,,0,,,,
3480 2,,魚切上,,34.426217,132.3438125,3480 2,,0,,,,
3490 1,,八幡川峡,,34.4287111,132.3362921,3490 1,,0,,,,
3490 2,,八幡川峡,,34.42878108,132.3375819,3490 2,,0,,,,
3500 1,,魚切ダム,,34.4291965,132.3280999,3500 1,,0,,,,
3500 2,,魚切ダム,,34.42913087,132.327916,3500 2,,0,,,,
3510 1,,とちが谷隧道,,34.4282967,132.3246054,3510 1,,0,,,,
3510 2,,とちが谷隧道,,34.4281811,132.3250017,3510 2,,0,,,,
3520 1,,河内下原,,34.4268631,132.3124856,3520 1,,0,,,,
3520 2,,河内下原,,34.4270664,132.3130772,3520 2,,0,,,,
3530 1,,白川,,34.4297504,132.3094963,3530 1,,0,,,,
3530 2,,白川,,34.4297838,132.3091226,3530 2,,0,,,,
3540 1,,大古谷,,34.4353322,132.3067387,3540 1,,0,,,,
3540 2,,大古谷,,34.4352474,132.3066795,3540 2,,0,,,,
3550 1,,湯来川角,,34.4372259,132.2956708,3550 1,,0,,,,1
3550 2,,湯来川角,,34.4371508,132.2956712,3550 2,,0,,,,2
3550 3,,湯来川角,,34.43697945,132.2950184,3550 3,,0,,,,3
3550 4,,湯来川角,,34.4370418,132.2949868,3550 4,,0,,,,4
3560 1,,砂谷酪農入口,,34.4413198,132.291238,3560 1,,0,,,,
3560 2,,砂谷酪農入口,,34.4413138,132.2912168,3560 2,,0,,,,
3570 1,,湯来南高校,,34.4445985,132.2905229,3570 1,,0,,,,
3570 2,,湯来南高校,,34.4442386,132.2905735,3570 2,,0,,,,
3580 1,,大畑,,34.4471128,132.2890605,3580 1,,0,,,,
3580 2,,大畑,,34.447131,132.2890555,3580 2,,0,,,,
3590 1,,伏郷,,34.4497003,132.2889987,3590 1,,0,,,,
3590 2,,伏郷,,34.449725,132.2889947,3590 2,,0,,,,
3600 1,,大森,,34.45329423,132.2867183,3600 1,,0,,,,
3600 2,,大森,,34.45239433,132.287085,3600 2,,0,,,,
3610 1,,上大野,,34.4579936,132.2839085,3610 1,,0,,,,
3610 2,,上大野,,34.4579801,132.283917,3610 2,,0,,,,
36119 1,,三次もののけミュージアム,,34.8151215,132.8446478,36119 1,,0,,,,
3620 1,,湯来大野,,34.4628477,132.2818839,3620 1,,0,,,,
3620 2,,湯来大野,,34.4628769,132.2818812,3620 2,,0,,,,
3630 1,,堂の久保,,34.466757,132.2810192,3630 1,,0,,,,
3630 2,,堂の久保,,34.4667471,132.281032,3630 2,,0,,,,
3640 1,,鍋石,,34.4689958,132.2789961,3640 1,,0,,,,
3640 2,,鍋石,,34.4689742,132.2790188,3640 2,,0,,,,
3650 1,,下伏,,34.4719604,132.2791078,3650 1,,0,,,,
3650 2,,下伏,,34.4719236,132.2790942,3650 2,,0,,,,
3660 1,,大橋,,34.4870749,132.2739914,3660 1,,0,,,,
3660 2,,大橋,,34.4875794,132.2733263,3660 2,,0,,,,
3670 1,,上大橋,,34.4862671,132.2695285,3670 1,,0,,,,
3670 2,,上大橋,,34.486286,132.2695344,3670 2,,0,,,,
3680 1,,石が原,,34.4831166,132.2686774,3680 1,,0,,,,
3680 2,,石が原,,34.4831425,132.268682,3680 2,,0,,,,
3690 1,,石が原上,,34.4817267,132.2684027,3690 1,,0,,,,
3690 2,,石が原上,,34.4817214,132.26846,3690 2,,0,,,,
3700 1,,石が谷峡入口,,34.480275,132.2647523,3700 1,,0,,,,
3700 2,,石が谷峡入口,,34.4801704,132.2647836,3700 2,,0,,,,
3710 1,,下志割,,34.4814508,132.2616591,3710 1,,0,,,,
3710 2,,下志割,,34.4813963,132.2616222,3710 2,,0,,,,
3720 1,,志割,,34.4807158,132.258426,3720 1,,0,,,,
3720 2,,志割,,34.4807221,132.2584356,3720 2,,0,,,,
3730 1,,粟柱入口,,34.4774534,132.2554957,3730 1,,0,,,,
3730 2,,粟柱入口,,34.4774349,132.2556149,3730 2,,0,,,,
3740 1,,下田布神社前,,34.4744736,132.2543091,3740 1,,0,,,,
3740 2,,下田布神社前,,34.4743997,132.2544173,3740 2,,0,,,,
3750 1,,田布,,34.4729422,132.252419,3750 1,,0,,,,
3750 2,,田布,,34.4728136,132.2524809,3750 2,,0,,,,
3760 1,,上田布,,34.4735267,132.2474918,3760 1,,0,,,,
3760 2,,上田布,,34.4734086,132.2475005,3760 2,,0,,,,
3770 1,,湯来温泉,,34.4751784,132.2421386,3770 1,,0,,,,
3770 2,,湯来温泉,,34.4750789,132.2421691,3770 2,,0,,,,
3780 1,,湯来ロッジ前,,34.473646,132.2397936,3780 1,,0,,,,
3780 2,,湯来ロッジ前,,34.4736331,132.239763,3780 2,,0,,,,
42021 1,,勝木,,34.53485553,132.4787486,42021 1,,0,,,,
4390 1,,古江,,34.39231959,132.4111608,4390 1,,0,,,,
4390 2,,古江,,34.3933692,132.4128422,4390 2,,0,,,,
4390 3,,古江,,34.3919396,132.4112249,4390 3,,0,,,,
4400 1,,田方,,34.3882166,132.4015192,4400 1,,0,,,,1
4400 2,,田方,,34.3883799,132.4021943,4400 2,,0,,,,2
4400 3,,田方,,34.3876904,132.4019365,4400 3,,0,,,,3
4400 4,,田方,,34.3875918,132.4008906,4400 4,,0,,,,4
4410 1,,鈴が台,,34.37623744,132.3800141,4410 1,,0,,,,
4410 2,,鈴が台,,34.37563748,132.3785976,4410 2,,0,,,,
4420 1,,皆賀上,,34.37712046,132.3677817,4420 1,,0,,,,
4420 2,,皆賀上,,34.37632056,132.3684817,4420 2,,0,,,,
4460 1,,五日市落合,,34.3812682,132.3603551,4460 1,,0,,,,
4460 2,,五日市落合,,34.3816082,132.3601545,4460 2,,0,,,,
4570 1,,砂谷中学校,,34.4345532,132.2932548,4570 1,,0,,,,
4570 2,,砂谷中学校,,34.4345432,132.2932357,4570 2,,0,,,,
4580 1,,湯来南小学校,,34.4321721,132.290109,4580 1,,0,,,,
4580 2,,湯来南小学校,,34.4320943,132.289992,4580 2,,0,,,,
4600 1,,高井北,,34.3972129,132.3680243,4600 1,,0,,,,
4610 1,,和田東,,34.4028727,132.3714674,4610 1,,0,,,,
4610 2,,和田東,,34.401851203798885285394,132.3708636721656994617876,4610 2,,0,,,,
47014 2,,広島港桟橋,,34.35285792,132.4553422,47014 2,,0,,,,
4730 1,,新郡橋,,34.3978502,132.3626243,4730 1,,0,,,,
4730 2,,新郡橋,,34.3978548,132.3622483,4730 2,,0,,,,
4790 1,,中,,34.4123285,132.3758071,4790 1,,0,,,,
4790 2,,中,,34.4119482,132.3750062,4790 2,,0,,,,
4800 1,,宮の下,,34.4144875,132.3804326,4800 1,,0,,,,
4800 2,,宮の下,,34.4145572,132.3803418,4800 2,,0,,,,
4810 1,,石内農協,,34.4164119,132.3822517,4810 1,,0,,,,
4810 2,,石内農協,,34.4164386,132.3821226,4810 2,,0,,,,
4820 1,,石内学校,,34.4182616,132.3844233,4820 1,,0,,,,
4820 2,,石内学校,,34.4182348,132.3837508,4820 2,,0,,,,
4830 1,,平岩,,34.4205195,132.386641,4830 1,,0,,,,
4830 2,,平岩,,34.4203035,132.3862965,4830 2,,0,,,,
4840 1,,上平岩,,34.4215866,132.3894371,4840 1,,0,,,,
4840 2,,上平岩,,34.4217456,132.3902373,4840 2,,0,,,,
4850 1,,石内原田,,34.4234482,132.3963146,4850 1,,0,,,,1
4850 2,,石内原田,,34.423648,132.3961313,4850 2,,0,,,,2
4850 3,,石内原田,,34.4229754,132.397703,4850 3,,0,,,,3
4850 4,,石内原田,,34.4231353,132.3973886,4850 4,,0,,,,4
4860 1,,半坂,,34.4276169,132.3984454,4860 1,,0,,,,
4860 2,,半坂,,34.4281436,132.3985014,4860 2,,0,,,,
4870 1,,喜生園,,34.370151,132.3481592,4870 1,,0,,,,
4870 2,,喜生園,,34.370133,132.3481089,4870 2,,0,,,,
4880 1,,下三宅,,34.3720356,132.3463401,4880 1,,0,,,,
4880 2,,下三宅,,34.3720067,132.3461263,4880 2,,0,,,,
4890 1,,三宅,,34.3727798,132.3452843,4890 1,,0,,,,
4890 2,,三宅,,34.3727424,132.3452532,4890 2,,0,,,,
4900 1,,広島工大上,,34.37322043,132.3421007,4900 1,,0,,,,
4900 2,,広島工大上,,34.37310378,132.3420674,4900 2,,0,,,,
4910 1,,ゴルフ場入口,,34.37673667,132.3392508,4910 1,,0,,,,
4910 2,,ゴルフ場入口,,34.37690332,132.3392174,4910 2,,0,,,,
4920 1,,五日市観音中学校,,34.38036964,132.3403839,4920 1,,0,,,,
4920 2,,五日市観音中学校,,34.37998635,132.3405839,4920 2,,0,,,,
4930 1,,観音台入口,,34.38148,132.3380042,4930 1,,0,,,,
4930 2,,観音台入口,,34.3815464,132.3378997,4930 2,,0,,,,
4940 1,,観音台,,34.3834933,132.3377361,4940 1,,0,,,,
4940 2,,観音台,,34.3834953,132.3376489,4940 2,,0,,,,
4950 1,,五日市高校,,34.38505245,132.3394671,4950 1,,0,,,,
4950 2,,五日市高校,,34.3854539,132.3395044,4950 2,,0,,,,
4951 1,,折出,,34.3896645,132.3537876,4951 1,,0,,,,
4951 2,,折出,,34.389401,132.3542822,4951 2,,0,,,,
4960 1,,薬師が丘入口,,34.3899281,132.3505607,4960 1,,0,,,,
4960 2,,薬師が丘入口,,34.3899145,132.3503258,4960 2,,0,,,,
4970 1,,植物公園,,34.38863556,132.3483495,4970 1,,0,,,,
4970 2,,植物公園,,34.38861889,132.3483328,4970 2,,0,,,,
4981 1,,廿日市市役所前駅,,34.3525698,132.3296323,4981 1,,0,,,,
4982 1,,陽光台四丁目,,34.3560697,132.3083264,4982 1,,0,,,,
4983 1,,あいプラザ,,34.350821,132.3308449,4983 1,,0,,,,
4983 2,,あいプラザ,,34.3509147,132.3309642,4983 2,,0,,,,
5000 1,,七尾中学校,,34.35563864,132.3229531,5000 1,,0,,,,1
5000 2,,七尾中学校,,34.3548054,132.3227365,5000 2,,0,,,,2
50010 1,,県庁前,,34.3973354,132.4591395,50010 1,,0,,,,
50010 24,,県庁前,,34.39612,132.4581621,50010 24,,0,,,,24
50020 22,,紙屋町(紙屋町東電停前),紙屋町東電停前,34.39515346,132.45879,50020 22,,0,,,,22
50020 27,,紙屋町(ひろしまゲートパークプラザ前),ひろしまゲートパークプラザ前,34.396111,132.4547832,50020 27,,0,,,,27
50020 30,,紙屋町(紙屋町東電停前),紙屋町東電停前,34.3948845,132.4585213,50020 30,,0,,,,30
50020 33,,紙屋町(エディオン西館前),エディオン西館前,34.395566,132.4558475,50020 33,,0,,,,33
50030 0,,八丁堀,,34.3932138,132.4651721,50030 0,,0,,,,0
50030 1,,八丁堀(賀茂鶴オアシス前),賀茂鶴オアシス前,34.3936573,132.4646439,50030 1,,0,,,,1
50030 11,,八丁堀(ヤマダ電機前),ヤマダ電機前,34.3931465,132.4634457,50030 11,,0,,,,11
50030 12,,八丁堀(モーツアルト前),モーツアルト前,34.3927211,132.4630779,50030 12,,0,,,,12
50030 13,,八丁堀(福屋前),福屋前,34.393837,132.4626564,50030 13,,0,,,,13
50030 14,,八丁堀(広島信用金庫前),広島信用金庫前,34.39408696,132.4617731,50030 14,,0,,,,14
50030 15,,八丁堀(りそな銀行前),りそな銀行前,34.39440357,132.4605232,50030 15,,0,,,,15
50030 2,,八丁堀,,34.3937914,132.4640812,50030 2,,0,,,,2-3
50030 4,,八丁堀(白島通り),白島通り,34.3946881,132.4636655,50030 4,,0,,,,4
50030 5,,八丁堀(福屋別館前),福屋別館前,34.3940798,132.4630218,50030 5,,0,,,,5
50030 6,,八丁堀(ハンズ前),ハンズ前,34.3943387,132.4619973,50030 6,,0,,,,6
50040 1,,銀山町,,34.393366,132.4668637,50040 1,,0,,,,
50040 2,,銀山町,,34.3930911,132.4665658,50040 2,,0,,,,
50050 1,,稲荷町,,34.3928229,132.4707788,50050 1,,0,,,,1
50050 2,,稲荷町,,34.3925583,132.4707552,50050 2,,0,,,,2
50050 3,,稲荷町,,34.39202068,132.4717557,50050 3,,0,,,,3
50050 4,,稲荷町,,34.391869,132.4713267,50050 4,,0,,,,4
50060 0,,広島駅,,34.3961052,132.4734503,50060 0,,0,,,,
50060 10,,広島駅,,34.397103511131915154092,132.473921998273051541892,50060 10,,0,,,,10
50060 13,,広島駅,,34.3967927,132.4742847,50060 13,,0,,,,13
50060 15,,広島駅,,34.3969609,132.4739767,50060 15,,0,,,,15
50060 16,,広島駅,,34.3956805,132.4762608,50060 16,,0,,,,16
50060 17,,広島駅,,34.39603698,132.4752053,50060 17,,0,,,,17
50060 3,,広島駅,,34.3969899,132.4744408,50060 3,,0,,,,3
50060 4,,広島駅,,34.3970832,132.4742693,50060 4,,0,,,,4
50060 50,,広島駅,,34.3946082,132.4738721,50060 50,,0,,,,
50060 999,,広島駅,,34.397009,132.474403,50060 999,,0,,,,1
50070 1,,東区役所前,,34.3962204,132.4838429,50070 1,,0,,,,
50070 2,,東区役所前,,34.39588714,132.4833546,50070 2,,0,,,,
50080 1,,広電曙営業所前,,34.3955378,132.487047,50080 1,,0,,,,
50080 2,,広電曙営業所前,,34.39545391,132.4863544,50080 2,,0,,,,
50090 1,,曙町,,34.3949007,132.4903444,50090 1,,0,,,,
50090 2,,曙町,,34.3948736,132.4894917,50090 2,,0,,,,
50100 1,,矢賀入口,,34.3946629,132.4915748,50100 1,,0,,,,
50100 2,,矢賀入口,,34.3944181,132.4917568,50100 2,,0,,,,
50101 1,,矢賀新町二丁目,,34.39403756,132.496037,50101 1,,0,,,,
50101 2,,矢賀新町二丁目,,34.3939188,132.4961833,50101 2,,0,,,,
50102 1,,大須三丁目,,34.397335,132.5003348,50102 1,,0,,,,
50102 2,,大須三丁目,,34.397446,132.5009058,50102 2,,0,,,,
50103 1,,本町五丁目,,34.39855387,132.5032195,50103 1,,0,,,,
50103 2,,本町五丁目,,34.39860387,132.5036361,50103 2,,0,,,,
50104 1,,本町四丁目,,34.3997443,132.5061219,50104 1,,0,,,,
50104 2,,本町四丁目,,34.399786,132.5065118,50104 2,,0,,,,
50105 1,,矢賀駅入口,,34.3969868,132.498043,50105 1,,0,,,,
50105 2,,矢賀駅入口,,34.39705394,132.4983366,50105 2,,0,,,,
50110 1,,矢賀新町,,34.3928631,132.4966062,50110 1,,0,,,,
50110 2,,矢賀新町,,34.3928542,132.4962025,50110 2,,0,,,,
50111 1,,総社会館,,34.3997372,132.5123321,50111 1,,0,,,,
50111 2,,総社会館,,34.4000561,132.5124487,50111 2,,0,,,,
50112 1,,江本寺,,34.402107,132.5127486,50112 1,,0,,,,
50112 2,,江本寺,,34.4017081,132.5128521,50112 2,,0,,,,
50113 1,,石井城址入口,,34.4021593,132.5105977,50113 1,,0,,,,
50113 2,,石井城址入口,,34.4023804,132.5108595,50113 2,,0,,,,
50120 1,,天神川駅北(イオンモール広島府中前),イオンモール広島府中前,34.3919207,132.4990399,50120 1,,0,,,,
50120 2,,天神川駅北(イオンモール広島府中前),イオンモール広島府中前,34.3917072,132.4991556,50120 2,,0,,,,
50121 1,,イオンモール広島府中,,34.393642,132.4989534,50121 1,,0,,,,
50121 2,,イオンモール広島府中,,34.393671,132.4988083,50121 2,,0,,,,
50123 1,,大須一丁目,,34.391334,132.5005501,50123 1,,0,,,,
50130 1,,府中大橋,,34.39043805,132.5018533,50130 1,,0,,,,
50130 2,,府中大橋,,34.3901257,132.501975,50130 2,,0,,,,
50131 1,,大通一丁目,,34.38940487,132.5046365,50131 1,,0,,,,
50140 1,,浜田一丁目,,34.3884961,132.5078445,50140 1,,0,,,,1
50140 2,,浜田一丁目,,34.38872163,132.5059697,50140 2,,0,,,,2
50140 3,,浜田一丁目,,34.3878969,132.507068,50140 3,,0,,,,3
50140 4,,浜田一丁目,,34.3890455,132.5070631,50140 4,,0,,,,4
50150 1,,浜田二丁目,,34.3876629,132.5112282,50150 1,,0,,,,1
50150 2,,浜田二丁目,,34.3878506,132.509374,50150 2,,0,,,,2
50150 3,,浜田二丁目,,34.3872007,132.5102531,50150 3,,0,,,,3
50150 4,,浜田二丁目,,34.3884051,132.5101727,50150 4,,0,,,,4
50151 1,,浜田三丁目,,34.3862856,132.514254,50151 1,,0,,,,
50151 2,,浜田三丁目,,34.3859766,132.5144475,50151 2,,0,,,,
50160 1,,府中永田,,34.3849984,132.5166501,50160 1,,0,,,,
50160 2,,府中永田,,34.3848374,132.5166305,50160 2,,0,,,,
50161 1,,府中永田転回場,,34.3844693,132.5177172,50161 1,,0,,,,
50170 1,,府中郵便局前,,34.3902665,132.5109333,50170 1,,0,,,,
50170 2,,府中郵便局前,,34.3901703,132.5110049,50170 2,,0,,,,
50180 1,,宮の町五丁目,,34.3927155,132.5137243,50180 1,,0,,,,
50180 2,,宮の町五丁目,,34.3926267,132.5137759,50180 2,,0,,,,
50190 1,,東地区センター入口,,34.3939055,132.5164235,50190 1,,0,,,,
50190 2,,東地区センター入口,,34.39358795,132.5159187,50190 2,,0,,,,
50191 1,,山越池,,34.3925293,132.5186219,50191 1,,0,,,,
50191 2,,山越池,,34.3923846,132.5179176,50191 2,,0,,,,
50200 1,,安芸府中高校入口,,34.3932903,132.5191458,50200 1,,0,,,,
50200 2,,安芸府中高校入口,,34.3935202,132.5187948,50200 2,,0,,,,
50201 1,,府中ニュータウン下,,34.3902539,132.519362,50201 1,,0,,,,
50201 2,,府中ニュータウン下,,34.3900406,132.5192509,50201 2,,0,,,,
50202 1,,府中ニュータウン中,,34.3892435,132.5201522,50202 1,,0,,,,
50202 3,,府中ニュータウン中,,34.3894298,132.5200735,50202 3,,0,,,,
50203 1,,府中ニュータウン上,,34.3895724,132.5228184,50203 1,,0,,,,
50203 2,,府中ニュータウン上,,34.3895381,132.5224951,50203 2,,0,,,,
50204 1,,府中ニュータウン,,34.3890431,132.5238966,50204 1,,0,,,,
50204 2,,府中ニュータウン,,34.3891,132.5232043,50204 2,,0,,,,
50220 1,,府中町役場東口,,34.3940649,132.5065781,50220 1,,0,,,,
50220 2,,府中町役場東口,,34.39338781,132.5064361,50220 2,,0,,,,
50221 1,,入川橋,,34.3924557,132.5066843,50221 1,,0,,,,
50221 2,,入川橋,,34.3908212,132.5072284,50221 2,,0,,,,
50230 1,,府中埃宮,,34.3955304,132.5085121,50230 1,,0,,,,
50230 2,,府中埃宮,,34.39577093,132.5087692,50230 2,,0,,,,
50231 1,,龍仙寺前,,34.3976106,132.5105265,50231 1,,0,,,,
50231 2,,龍仙寺前,,34.3976664,132.5108451,50231 2,,0,,,,
50232 1,,みくまり峡入口,,34.3977255,132.5128036,50232 1,,0,,,,
50232 2,,みくまり峡入口,,34.3982424,132.5125934,50232 2,,0,,,,
50233 1,,府中山田,,34.395209,132.5132859,50233 1,,0,,,,
50233 2,,府中山田,,34.395236,132.513288,50233 2,,0,,,,
50234 1,,山田二丁目,,34.3962809,132.5130483,50234 1,,0,,,,
50234 2,,山田二丁目,,34.3960944,132.5129342,50234 2,,0,,,,
50235 1,,山田調整池,,34.3941467,132.5138623,50235 1,,0,,,,
50235 2,,山田調整池,,34.3940156,132.5138184,50235 2,,0,,,,
50260 1,,城ヶ丘入口,,34.4023757,132.5069279,50260 1,,0,,,,
50260 2,,城ヶ丘入口,,34.4023546,132.5068172,50260 2,,0,,,,
50270 1,,府中変電所,,34.4035909,132.5056454,50270 1,,0,,,,
50270 2,,府中変電所,,34.4033317,132.5059792,50270 2,,0,,,,
50271 1,,温品四丁目,,34.40825293,132.5088353,50271 1,,0,,,,
50271 2,,温品四丁目,,34.40833626,132.5090519,50271 2,,0,,,,
50280 1,,愛宕町,,34.3968078,132.4838721,50280 1,,0,,,,
50280 2,,愛宕町,,34.3968419,132.4822399,50280 2,,0,,,,
50290 1,,柳ヶ丘,,34.3821682,132.5117289,50290 1,,0,,,,
50290 2,,柳ヶ丘,,34.3821159,132.5117757,50290 2,,0,,,,
50291 1,,チェリーゴード前,,34.38343902,132.5147859,50291 1,,0,,,,
50291 2,,チェリーゴード前,,34.38317236,132.5136693,50291 2,,0,,,,
50292 1,,柳ヶ丘東,,34.3814587,132.5160133,50292 1,,0,,,,
50292 2,,柳ヶ丘東,,34.3814392,132.5159493,50292 2,,0,,,,
50293 1,,青崎東上児童遊園地前,,34.3797578,132.5151809,50293 1,,0,,,,
50293 2,,青崎東上児童遊園地前,,34.3797589,132.5151077,50293 2,,0,,,,
50294 1,,府中青崎東住宅前,,34.3788751,132.5121903,50294 1,,0,,,,
50294 2,,府中青崎東住宅前,,34.3789462,132.5121931,50294 2,,0,,,,
50295 1,,府中南小学校前,,34.37953937,132.5107364,50295 1,,0,,,,
50295 2,,府中南小学校前,,34.3794572,132.5109525,50295 2,,0,,,,
50296 1,,桃山一丁目,,34.3793204,132.5054976,50296 1,,0,,,,
50296 2,,桃山一丁目,,34.3794439,132.505533,50296 2,,0,,,,
50297 1,,鹿籠,,34.3800201,132.5032507,50297 1,,0,,,,
50297 2,,鹿籠,,34.3804168,132.5031789,50297 2,,0,,,,
50298 1,,茂陰ポンプ場,,34.3880572,132.4998325,50298 1,,0,,,,
50298 2,,茂陰ポンプ場,,34.3875405,132.4997659,50298 2,,0,,,,
50299 1,,府中交番,,34.3910087,132.501951,50299 1,,0,,,,
50299 2,,府中交番,,34.3908435,132.5019304,50299 2,,0,,,,
50300 1,,府中町役場,,34.3927241,132.50419,50300 1,,0,,,,
50300 2,,府中町役場,,34.3925962,132.5041827,50300 2,,0,,,,
50301 1,,文化橋,,34.3948098,132.5057464,50301 1,,0,,,,
50301 2,,文化橋,,34.3948887,132.5058329,50301 2,,0,,,,
50302 1,,ゆうゆうタウン商店街,,34.397704,132.5047815,50302 1,,0,,,,
50302 2,,ゆうゆうタウン商店街,,34.3977318,132.5049023,50302 2,,0,,,,
50303 1,,道隆寺下,,34.4037619,132.5133945,50303 1,,0,,,,
50303 2,,道隆寺下,,34.4036702,132.5133811,50303 2,,0,,,,
50304 1,,みくまり三丁目,,34.404318,132.5147225,50304 1,,0,,,,
50304 2,,みくまり三丁目,,34.4044399,132.5152134,50304 2,,0,,,,
50305 1,,御衣尾橋,,34.4034981,132.5156749,50305 1,,0,,,,
50305 2,,御衣尾橋,,34.4034452,132.5156369,50305 2,,0,,,,
50306 1,,桜ヶ丘・清水ヶ丘団地入口,,34.4039118,132.5173751,50306 1,,0,,,,
50307 1,,府中中学校東門,,34.3907682,132.5151339,50307 1,,0,,,,
50307 2,,府中中学校東門,,34.3910199,132.5150519,50307 2,,0,,,,
50308 1,,松崎八幡宮跡,,34.39070486,132.5119025,50308 1,,0,,,,
50308 2,,松崎八幡宮跡,,34.390736,132.5122078,50308 2,,0,,,,
50320 31,,本通り,,34.3940086,132.457404,50320 31,,0,,,,31
50320 32,,本通り,,34.3929937,132.4566812,50320 32,,0,,,,32
50330 1,,袋町,,34.3908974,132.456327,50330 1,,0,,,,
50340 1,,中電前,,34.3880239,132.4553583,50340 1,,0,,,,
50340 2,,中電前,,34.3890309,132.4553389,50340 2,,0,,,,
50350 1,,市役所前,,34.3864713,132.454824,50350 1,,0,,,,
50350 2,,市役所前,,34.385568,132.4541401,50350 2,,0,,,,
50360 1,,大手町四丁目,,34.3849678,132.4530812,50360 1,,0,,,,
50360 2,,大手町四丁目,,34.3849901,132.4528337,50360 2,,0,,,,
50360 3,,大手町四丁目,,34.3846614,132.4530554,50360 3,,0,,,,
50360 4,,大手町四丁目,,34.3846624,132.4530186,50360 4,,0,,,,
50370 1,,加古町,,34.3853567,132.4478984,50370 1,,0,,,,
50370 2,,加古町,,34.3850509,132.4479686,50370 2,,0,,,,
50380 1,,舟入本町,,34.3857965,132.4449532,50380 1,,0,,,,1
50380 2,,舟入本町,,34.3857739,132.4440017,50380 2,,0,,,,2
50381 3,,舟入本町,,34.3849284,132.4421189,50381 3,,0,,,,3
50390 1,,新観音橋東,,34.3867744,132.4419747,50390 1,,0,,,,
50390 2,,新観音橋東,,34.386521,132.4417345,50390 2,,0,,,,
50400 1,,新観音橋西,,34.3877486,132.4390169,50400 1,,0,,,,
50400 2,,新観音橋西,,34.3875085,132.4388378,50400 2,,0,,,,
50410 1,,観音本町,,34.38836,132.4371305,50410 1,,0,,,,
50410 2,,観音本町,,34.3881366,132.4368755,50410 2,,0,,,,
50420 1,,旭橋入口,,34.3877262,132.4327382,50420 1,,0,,,,1
50420 2,,旭橋入口,,34.3873195,132.432513,50420 2,,0,,,,2
50420 3,,旭橋入口,,34.387374,132.4310218,50420 3,,0,,,,3
50420 4,,旭橋入口,,34.3881971,132.4324187,50420 4,,0,,,,4
50420 5,,旭橋入口,,34.3866569,132.4311221,50420 5,,0,,,,5
50430 1,,南観音三丁目,,34.3843631,132.4298206,50430 1,,0,,,,
50430 2,,南観音三丁目,,34.3843386,132.4295644,50430 2,,0,,,,
50440 1,,南観音小学校前,,34.3816419,132.4285542,50440 1,,0,,,,
50440 2,,南観音小学校前,,34.3826369,132.4288055,50440 2,,0,,,,
50450 1,,西税務署入口,,34.3779508,132.4265777,50450 1,,0,,,,
50450 2,,西税務署入口,,34.3783052,132.4265676,50450 2,,0,,,,
50460 1,,総合グランド入口,,34.3767858,132.4254796,50460 1,,0,,,,
50460 2,,総合グランド入口,,34.3769816,132.425306,50460 2,,0,,,,
50470 1,,観音新町三丁目,,34.373929,132.4227708,50470 1,,0,,,,
50470 2,,観音新町三丁目,,34.3741884,132.4226773,50470 2,,0,,,,
50480 1,,観音三菱前,,34.3707144,132.4204177,50480 1,,0,,,,
50480 2,,観音三菱前,,34.3711416,132.4205012,50480 2,,0,,,,
50480 3,,観音三菱前,,34.3712434,132.4205918,50480 3,,0,,,,
50500 1,,観音新町四丁目,,34.3687612,132.4169996,50500 1,,0,,,,
50500 2,,観音新町四丁目,,34.3688249,132.4168647,50500 2,,0,,,,
50510 1,,山陽学園前,,34.3653872,132.4148208,50510 1,,0,,,,
50510 2,,山陽学園前,,34.3657206,132.4148053,50510 2,,0,,,,
50521 1,,観音マリーナホップ,,34.36057303,132.413362,50521 1,,0,,,,
50521 2,,観音マリーナホップ,,34.36070635,132.4135954,50521 2,,0,,,,
50540 1,,的場町,,34.3927348,132.4755499,50540 1,,0,,,,
50540 2,,的場町,,34.3924117,132.4753343,50540 2,,0,,,,
50550 1,,段原四丁目,,34.3893254,132.4801478,50550 1,,0,,,,
50560 1,,段原日出二丁目,,34.3875836,132.4839989,50560 1,,0,,,,
50570 1,,比治山小学校裏,,34.3848172,132.4870075,50570 1,,0,,,,
50580 1,,東雲一丁目,,34.3829498,132.4878403,50580 1,,0,,,,
50590 1,,東雲二丁目,,34.3803831,132.4890101,50590 1,,0,,,,
50600 1,,市立工業高校前,,34.3782725,132.4899684,50600 1,,0,,,,
50610 1,,邇保姫神社入口,,34.3766518,132.4912584,50610 1,,0,,,,
50620 1,,東本浦,,34.3753662,132.4929002,50620 1,,0,,,,
50620 2,,東本浦,,34.375407,132.492511,50620 2,,0,,,,
50630 1,,仁保一丁目,,34.3734846,132.4942017,50630 1,,0,,,,
50630 2,,仁保一丁目,,34.3735855,132.493696,50630 2,,0,,,,
50631 1,,地方,,34.3727199,132.4970545,50631 1,,0,,,,
50631 2,,地方,,34.3730072,132.4957118,50631 2,,0,,,,
50640 1,,渕崎,,34.3727743,132.4984687,50640 1,,0,,,,
50640 2,,渕崎,,34.3704532,132.4986226,50640 2,,0,,,,
50650 1,,上柞木,,34.3685155,132.4991708,50650 1,,0,,,,
50650 2,,上柞木,,34.3687963,132.4988813,50650 2,,0,,,,
50660 1,,柞木,,34.3671744,132.4993861,50660 1,,0,,,,
50660 2,,柞木,,34.3668128,132.4991841,50660 2,,0,,,,
50670 1,,仁保四丁目,,34.3627983,132.4982393,50670 1,,0,,,,
50670 2,,仁保四丁目,,34.3628492,132.4979136,50670 2,,0,,,,
50680 1,,日宇那町,,34.3612405,132.4912604,50680 1,,0,,,,
50680 2,,日宇那町,,34.3614586,132.4912135,50680 2,,0,,,,
50690 1,,楠那町,,34.3614821,132.4862967,50690 1,,0,,,,
50690 2,,楠那町,,34.3616642,132.4879378,50690 2,,0,,,,
50700 1,,仁保車庫前,,34.3616015,132.4850049,50700 1,,0,,,,
50700 2,,仁保車庫前,,34.3617855,132.4850142,50700 2,,0,,,,
50710 1,,本浦本町,,34.3748845,132.4903131,50710 1,,0,,,,
50720 1,,邇保姫神社入口,,34.3758222,132.4891552,50720 1,,0,,,,
50730 1,,本浦入口,,34.3772799,132.4877025,50730 1,,0,,,,
50740 1,,東雲本町三丁目,,34.3797556,132.4869884,50740 1,,0,,,,
50740 2,,東雲本町三丁目,,34.3795507,132.4861711,50740 2,,0,,,,
50740 3,,東雲本町三丁目,,34.3789152,132.4868292,50740 3,,0,,,,
50750 1,,東雲本町一丁目,,34.3810984,132.485612,50750 1,,0,,,,
50760 1,,比治山小学校前,,34.3837153,132.4844207,50760 1,,0,,,,
50770 1,,段原山崎,,34.385661,132.4814837,50770 1,,0,,,,
50771 1,,本浦,,34.3736683,132.4921327,50771 1,,0,,,,
50771 2,,本浦,,34.3736664,132.492061,50771 2,,0,,,,
50772 1,,旭ヶ丘団地入口,,34.3721496,132.4914585,50772 1,,0,,,,
50772 2,,旭ヶ丘団地入口,,34.3717659,132.4911076,50772 2,,0,,,,
50773 1,,仁保中学校前,,34.3701412,132.4927872,50773 1,,0,,,,
50773 2,,仁保中学校前,,34.3700951,132.4927004,50773 2,,0,,,,
50774 1,,ニュー旭ヶ丘,,34.3680637,132.4944292,50774 1,,0,,,,
50774 2,,ニュー旭ヶ丘,,34.3685403,132.4938153,50774 2,,0,,,,
50775 1,,仁保南４番,,34.3659739,132.495312,50775 1,,0,,,,
50775 2,,仁保南４番,,34.3661239,132.4952066,50775 2,,0,,,,
50776 1,,仁保南３番,,34.3645907,132.4954219,50776 1,,0,,,,
50776 2,,仁保南３番,,34.3648079,132.4953086,50776 2,,0,,,,
50777 1,,仁保南２番,,34.3633242,132.4955232,50777 1,,0,,,,
50777 2,,仁保南２番,,34.3630409,132.495444,50777 2,,0,,,,
50778 1,,仁保南１番,,34.3640431,132.4973954,50778 1,,0,,,,
50778 2,,仁保南１番,,34.3639586,132.4973934,50778 2,,0,,,,
50780 1,,牛田旭,,34.4124317,132.4737261,50780 1,,0,,,,
50790 1,,牛田本町(牛田交番前),牛田交番前,34.411119,132.4707948,50790 1,,0,,,,1
50790 2,,牛田本町,,34.4114272,132.4698091,50790 2,,0,,,,2
50790 3,,牛田本町(もみじ銀行前),もみじ銀行前,34.411652,132.4697936,50790 3,,0,,,,3
50791 1,,牛田本町六丁目,,34.4147201,132.4683248,50791 1,,0,,,,
50791 2,,牛田本町六丁目,,34.4143173,132.4683911,50791 2,,0,,,,
50792 1,,東区スポーツセンター前,,34.4160107,132.466838,50792 1,,0,,,,
50792 2,,東区スポーツセンター前,,34.4160142,132.466148,50792 2,,0,,,,
50800 1,,牛田大橋,,34.4104693,132.4686226,50800 1,,0,,,,1
50800 2,,牛田大橋,,34.4104682,132.468347,50800 2,,0,,,,2
50810 1,,神田橋,,34.40938545,132.4691052,50810 1,,0,,,,
50810 2,,神田橋,,34.4089132,132.4695252,50810 2,,0,,,,
50820 1,,饒津裏,,34.4061008,132.470855,50820 1,,0,,,,
50820 2,,饒津裏,,34.4060481,132.4706242,50820 2,,0,,,,
50821 1,,饒津,,34.4047954,132.4693596,50821 1,,0,,,,
50821 2,,饒津,,34.4039416,132.4691123,50821 2,,0,,,,
50830 1,,鶴羽根神社前,,34.4025374,132.4712831,50830 1,,0,,,,
50830 2,,鶴羽根神社前,,34.4030893,132.4706081,50830 2,,0,,,,
50840 1,,二葉の里,,34.4011287,132.4727178,50840 1,,0,,,,
50840 2,,二葉の里,,34.4014802,132.4727367,50840 2,,0,,,,
50850 1,,東照宮入口,,34.4003935,132.4738684,50850 1,,0,,,,
50850 2,,東照宮入口,,34.4000821,132.4750696,50850 2,,0,,,,
50860 1,,広島駅新幹線口,,34.3984741,132.4761,50860 1,,0,,,,1
50860 25,,広島駅新幹線口,,34.398402,132.4767832,50860 25,,0,,,,3
50860 27,,広島駅新幹線口,,34.3982691,132.4779042,50860 27,,0,,,,27
50860 28,,広島駅新幹線口,,34.3986929,132.4777417,50860 28,,0,,,,28
50860 50,,広島駅新幹線口,,34.3989056,132.4766304,50860 50,,0,,,,
50870 2,,若草町,,34.3974135,132.4795904,50870 2,,0,,,,
50880 1,,段原一丁目,,34.39102087,132.4764721,50880 1,,0,,,,
50880 2,,段原一丁目,,34.3901541,132.4765948,50880 2,,0,,,,
50900 1,,鶴見橋,,34.3869235,132.4670598,50900 1,,0,,,,
50900 2,,鶴見橋,,34.3867031,132.4671324,50900 2,,0,,,,
50902 1,,桜ヶ丘集会所前,,34.43188332,132.4849195,50902 1,,0,,,,3
50902 2,,桜ヶ丘集会所前,,34.43179999,132.4850361,50902 2,,0,,,,4
50910 1,,比治山橋,,34.38212169,132.4686231,50910 1,,0,,,,
50910 2,,比治山橋,,34.38220501,132.4684398,50910 2,,0,,,,
50920 1,,南区役所前,,34.3799453,132.4705765,50920 1,,0,,,,
50920 2,,南区役所前,,34.380033,132.4703029,50920 2,,0,,,,
50920 3,,南区役所前,,34.3796882,132.4703241,50920 3,,0,,,,
50920 4,,南区役所前,,34.38108847,132.4689731,50920 4,,0,,,,
50930 1,,出汐町,,34.3792315,132.4728658,50930 1,,0,,,,
50930 2,,出汐町,,34.3789222,132.4727727,50930 2,,0,,,,
50940 1,,出汐一丁目,,34.379836,132.4761461,50940 1,,0,,,,
50940 2,,出汐一丁目,,34.3796646,132.4758489,50940 2,,0,,,,
50950 3,,大学病院前,,34.3800485,132.4779698,50950 3,,0,,,,3
50950 4,,大学病院前,,34.3801029,132.4781526,50950 4,,0,,,,4
50960 1,,牛田南,,34.4085173,132.4734375,50960 1,,0,,,,
50960 2,,牛田南,,34.4084956,132.4730715,50960 2,,0,,,,
50970 1,,牛田東一丁目,,34.41033,132.4783897,50970 1,,0,,,,
50970 2,,牛田東一丁目,,34.4104556,132.4786248,50970 2,,0,,,,
50971 1,,牛田東二丁目,,34.4108085,132.4808706,50971 1,,0,,,,
50971 2,,牛田東二丁目,,34.4107876,132.4815659,50971 2,,0,,,,
50972 1,,女学院大学前,,34.4118149,132.4833924,50972 1,,0,,,,
50972 2,,女学院大学前,,34.4113361,132.4830946,50972 2,,0,,,,
50973 1,,早稲田団地郵便局前,,34.4145661,132.4821838,50973 1,,0,,,,
50973 2,,早稲田団地郵便局前,,34.4149363,132.4824605,50973 2,,0,,,,
50974 1,,牛田早稲田団地,,34.4164495,132.4834071,50974 1,,0,,,,
50974 2,,牛田早稲田団地,,34.4163233,132.4828266,50974 2,,0,,,,
50980 1,,白島九軒町,,34.4080621,132.4664536,50980 1,,0,,,,
50980 2,,白島九軒町,,34.4078772,132.4661583,50980 2,,0,,,,
50990 1,,白島町,,34.4049942,132.4656965,50990 1,,0,,,,
50990 2,,白島町,,34.4052079,132.4655277,50990 2,,0,,,,
51000 1,,広島はくしま病院,,34.4029813,132.4654415,51000 1,,0,,,,
51000 2,,広島はくしま病院,,34.4028229,132.4652518,51000 2,,0,,,,
51010 1,,検察庁前,,34.4005539,132.4646175,51010 1,,0,,,,
51010 2,,検察庁前,,34.4007077,132.4645334,51010 2,,0,,,,
51020 1,,合同庁舎入口,,34.3988646,132.4640555,51020 1,,0,,,,
51020 2,,合同庁舎入口,,34.3985465,132.463803,51020 2,,0,,,,
51030 1,,京口門,,34.3967355,132.463343,51030 1,,0,,,,
51030 2,,京口門,,34.3968528,132.4632303,51030 2,,0,,,,
51040 1,,新住吉橋,,34.3847024,132.4460592,51040 1,,0,,,,
51050 2,,舟入幸町,,34.3813491,132.4442348,51050 2,,0,,,,
51060 1,,舟入南一丁目,,34.378153,132.4427642,51060 1,,0,,,,
51070 1,,舟入南四丁目,,34.375488,132.4418298,51070 1,,0,,,,
51080 1,,江波東一丁目,,34.3724872,132.4405362,51080 1,,0,,,,
51090 1,,江波東二丁目,,34.3692803,132.4395122,51090 1,,0,,,,
51100 1,,江波南一丁目,,34.36710609,132.437943,51100 1,,0,,,,
51110 1,,江波小学校前,,34.3648935,132.43531,51110 1,,0,,,,
51111 1,,江波南二丁目,,34.3632969,132.4317295,51111 1,,0,,,,
51111 2,,江波南二丁目,,34.3633154,132.4314544,51111 2,,0,,,,
51120 1,,江波三菱前,,34.3614292,132.4307924,51120 1,,0,,,,
51130 1,,江波栄町,,34.3659728,132.4306857,51130 1,,0,,,,
51140 1,,江波西二丁目,,34.3677952,132.4301652,51140 1,,0,,,,
51150 1,,二本松一丁目,,34.3697755,132.4300861,51150 1,,0,,,,
51160 1,,皿山公園下,,34.3697739,132.4330559,51160 1,,0,,,,
51170 1,,江波西一丁目,,34.3698166,132.4350847,51170 1,,0,,,,
51180 1,,江波営業所,,34.3717962,132.4360626,51180 1,,0,,,,
51180 2,,江波営業所,,34.3720073,132.4358676,51180 2,,0,,,,
51190 1,,舟入南,,34.3746125,132.4371937,51190 1,,0,,,,
51190 2,,舟入南,,34.3760512,132.4374851,51190 2,,0,,,,
51200 1,,舟入川口町,,34.3811063,132.440109,51200 1,,0,,,,
51200 2,,舟入川口町,,34.3809086,132.4397178,51200 2,,0,,,,
51210 1,,舟入幸町,,34.384127,132.441923,51210 1,,0,,,,
51210 3,,舟入幸町,,34.3836132,132.4412863,51210 3,,0,,,,
51240 10,,横川駅前,,34.4090201,132.4491043,51240 10,,0,,,,10
51240 3,,横川駅前,,34.4097883,132.450027,51240 3,,0,,,,3
51240 4,,横川駅前,,34.4097766,132.4498661,51240 4,,0,,,,4
51240 5,,横川駅前,,34.40925179,132.4496068,51240 5,,0,,,,5
51240 6,,横川駅前,,34.4080786,132.4499153,51240 6,,0,,,,6
51240 9,,横川駅前,,34.40920183,132.4517233,51240 9,,0,,,,9
51250 1,,横川新町,,34.4080592,132.4467641,51250 1,,0,,,,
51250 2,,横川新町,,34.4085212,132.4469387,51250 2,,0,,,,
51260 1,,中広中学校前,,34.4061489,132.445055,51260 1,,0,,,,
51260 2,,中広中学校前,,34.4063478,132.4448988,51260 2,,0,,,,
51270 1,,中広三丁目,,34.4045602,132.4437036,51270 1,,0,,,,
51270 2,,中広三丁目,,34.4045285,132.4433431,51270 2,,0,,,,
51280 1,,中広二丁目,,34.4028105,132.4423366,51280 1,,0,,,,
51290 1,,中広一丁目,,34.400406,132.4410836,51290 1,,0,,,,
51290 2,,中広一丁目,,34.4006698,132.44093,51290 2,,0,,,,
51300 1,,上天満町,,34.398659,132.4410198,51300 1,,0,,,,
51300 2,,上天満町,,34.3984294,132.4411567,51300 2,,0,,,,
51310 1,,西十日市,,34.398072,132.4440658,51310 1,,0,,,,
51310 2,,西十日市,,34.3978558,132.4439982,51310 2,,0,,,,
51320 1,,十日市,,34.3973264,132.4484166,51320 1,,0,,,,1
51320 2,,十日市,,34.39755297,132.445591,51320 2,,0,,,,2
51320 3,,十日市,,34.3970403,132.4484828,51320 3,,0,,,,3
51320 4,,十日市,,34.3984628,132.4475751,51320 4,,0,,,,4
51320 5,,十日市,,34.398219,132.4471463,51320 5,,0,,,,5
51330 1,,本川町,,34.3970789,132.4499857,51330 1,,0,,,,
51330 2,,本川町,,34.3967115,132.4505573,51330 2,,0,,,,
51340 28,,原爆ドーム前,,34.396249,132.4541328,51340 28,,0,,,,28
51340 34,,原爆ドーム前,,34.39600328,132.454157,51340 34,,0,,,,34
51350 1,,国泰寺町二丁目,,34.3841441,132.4569447,51350 1,,0,,,,
51350 2,,国泰寺町二丁目,,34.3838326,132.4568806,51350 2,,0,,,,
51360 1,,昭和町,,34.3823559,132.4629024,51360 1,,0,,,,
51360 2,,昭和町,,34.381929,132.4632466,51360 2,,0,,,,
51370 1,,大学病院南門,,34.3781675,132.4807882,51370 1,,0,,,,
51370 2,,大学病院南門,,34.3775518,132.4796361,51370 2,,0,,,,
51380 1,,市立工業高校入口,,34.3789541,132.4902189,51380 1,,0,,,,
51380 2,,市立工業高校入口,,34.378979,132.4890697,51380 2,,0,,,,
51390 1,,東雲,,34.3776224,132.4948109,51390 1,,0,,,,
51390 2,,東雲,,34.3779033,132.4934595,51390 2,,0,,,,
51400 1,,仁保二丁目,,34.3757894,132.4974886,51400 1,,0,,,,
51400 2,,仁保二丁目,,34.3761495,132.4965378,51400 2,,0,,,,
51401 1,,向洋本町,,34.3695439,132.5062188,51401 1,,0,,,,1
51401 2,,向洋本町,,34.3692944,132.5063464,51401 2,,0,,,,2
51402 1,,堀越三丁目,,34.3693366,132.5105792,51402 1,,0,,,,
51402 2,,堀越三丁目,,34.3690674,132.5106387,51402 2,,0,,,,
51403 1,,向洋新町一丁目,,34.3658601,132.5107855,51403 1,,0,,,,
51403 2,,向洋新町一丁目,,34.366466,132.5110781,51403 2,,0,,,,
51404 1,,向洋新町二丁目,,34.36401,132.5087021,51404 1,,0,,,,
51404 2,,向洋新町二丁目,,34.3644416,132.5093599,51404 2,,0,,,,
51405 1,,向洋新町三丁目,,34.3631883,132.5069392,51405 1,,0,,,,
51405 2,,向洋新町三丁目,,34.3636065,132.507612,51405 2,,0,,,,
51406 1,,向洋新町,,34.3620246,132.5049779,51406 1,,0,,,,
51406 2,,向洋新町,,34.3620453,132.504841,51406 2,,0,,,,
51407 1,,向洋新町車庫,,34.3611026,132.5036479,51407 1,,0,,,,
51410 1,,天満町,,34.3960241,132.4384888,51410 1,,0,,,,1
51410 2,,天満町,,34.3973011,132.4390129,51410 2,,0,,,,2
51420 1,,西観音町,,34.3928217,132.4363544,51420 1,,0,,,,
51420 2,,西観音町,,34.3933732,132.4364985,51420 2,,0,,,,
51430 1,,観音小学校前,,34.3901534,132.4337241,51430 1,,0,,,,
51430 2,,観音小学校前,,34.3896585,132.4331022,51430 2,,0,,,,
51480 1,,女学院前,,34.39775329,132.4654727,51480 1,,0,,,,1
51480 2,,女学院前,,34.3971942,132.466851,51480 2,,0,,,,2
51480 3,,女学院前,,34.3986769,132.4648782,51480 3,,0,,,,3
51480 4,,女学院前,,34.3984386,132.4650822,51480 4,,0,,,,4
51540 1,,西広島駅・己斐,,34.397869302949211687637,132.4284924021825559161532,51540 1,,0,,,,1
51540 4,,西広島駅・己斐,,34.3965565,132.4280324,51540 4,,0,,,,4
51540 6,,西広島駅・己斐,,34.3965156,132.4277035,51540 6,,0,,,,5
51550 1,,己斐本町２丁目,,34.394177,132.4256125,51550 1,,0,,,,1
51550 2,,己斐本町２丁目,,34.3932836,132.4250968,51550 2,,0,,,,2
51580 1,,竹屋町,,34.38437133,132.4618903,51580 1,,0,,,,1
51580 2,,竹屋町,,34.38435464,132.460607,51580 2,,0,,,,2
51580 3,,竹屋町,,34.3836006,132.4617566,51580 3,,0,,,,3
51580 4,,竹屋町,,34.3836326,132.461461,51580 4,,0,,,,4
51590 1,,宝町,,34.38418805,132.4636568,51590 1,,0,,,,
51590 2,,宝町,,34.38413803,132.4624402,51590 2,,0,,,,
51600 1,,昭和町,,34.38388813,132.4663732,51600 1,,0,,,,
51600 2,,昭和町,,34.3838881,132.46484,51600 2,,0,,,,
51610 1,,出汐三丁目,,34.3766048,132.4766803,51610 1,,0,,,,1
51610 2,,出汐三丁目,,34.376482,132.4766227,51610 2,,0,,,,2
51610 3,,出汐三丁目,,34.3765067,132.4762663,51610 3,,0,,,,3
51620 1,,旭町,,34.3735181,132.4781173,51620 1,,0,,,,
51620 2,,旭町,,34.3738496,132.4778669,51620 2,,0,,,,
51621 1,,西旭町,,34.3729108,132.4755064,51621 1,,0,,,,
51622 2,,旭二丁目,,34.3725319,132.4763236,51622 2,,0,,,,
51623 1,,翠町第二公園前,,34.3729034,132.472458,51623 1,,0,,,,
51623 2,,翠町第二公園前,,34.3730446,132.4725618,51623 2,,0,,,,
5170 1,,荒神町,,34.3930941,132.4785765,5170 1,,0,,,,
5170 2,,荒神町,,34.3932942,132.4786871,5170 2,,0,,,,
51790 2,,東区スポーツセンター入口,,34.4170687,132.4644187,51790 2,,0,,,,2
51790 3,,東区スポーツセンター入口,,34.4164111,132.4652551,51790 3,,0,,,,3
51792 1,,新白島駅,,34.407779,132.4608879,51792 1,,0,,,,
51792 2,,新白島駅,,34.4077441,132.4600824,51792 2,,0,,,,
5180 2,,西蟹屋,,34.3918448,132.4800368,5180 2,,0,,,,
51800 1,,牛田新町一丁目,,34.4203557,132.4654228,51800 1,,0,,,,
51800 2,,牛田新町一丁目,,34.4215848,132.4651055,51800 2,,0,,,,
51810 1,,牛田新町二丁目,,34.4233167,132.466269,51810 1,,0,,,,
51810 2,,牛田新町二丁目,,34.4246674,132.4666612,51810 2,,0,,,,
51830 1,,不動院,,34.4269192,132.4696079,51830 1,,0,,,,
51830 2,,不動院,,34.42673358,132.4687044,51830 2,,0,,,,
51840 1,,牛田新町四丁目,,34.4283538,132.4712904,51840 1,,0,,,,
51840 2,,牛田新町四丁目,,34.429535,132.4727456,51840 2,,0,,,,
51850 1,,天水,,34.4329298,132.4760676,51850 1,,0,,,,
51850 2,,天水,,34.43303304,132.4759035,51850 2,,0,,,,
51860 1,,広島ゴルフ場,,34.4354488,132.4789111,51860 1,,0,,,,
51860 2,,広島ゴルフ場,,34.4363678,132.4797146,51860 2,,0,,,,
51870 1,,下千足,,34.4377736,132.4817638,51870 1,,0,,,,
51870 2,,下千足,,34.43811593,132.4819861,51870 2,,0,,,,
51880 1,,千足,,34.4372122,132.4850374,51880 1,,0,,,,1
51880 2,,千足,,34.4373084,132.4848339,51880 2,,0,,,,2
51880 3,,千足,,34.43833266,132.4866024,51880 3,,0,,,,3
51882 1,,持明院前,,34.43531621,132.4806863,51882 1,,0,,,,
51882 2,,持明院前,,34.43529955,132.480953,51882 2,,0,,,,
51890 1,,戸坂小学校,,34.4362024,132.4863015,51890 1,,0,,,,
51890 2,,戸坂小学校,,34.4356983,132.4867925,51890 2,,0,,,,
51890 3,,戸坂小学校,,34.435631,132.4879685,51890 3,,0,,,,
51892 1,,くるめ木二丁目,,34.43306648,132.4826363,51892 1,,0,,,,
51892 2,,くるめ木二丁目,,34.43286651,132.4826863,51892 2,,0,,,,
5190 1,,広島バス大州車庫前,,34.3889415,132.4881603,5190 1,,0,,,,
5190 2,,広島バス大州車庫前,,34.3889152,132.4886779,5190 2,,0,,,,
51900 1,,桜ヶ丘団地入口,,34.4321052,132.4885743,51900 1,,0,,,,
51900 2,,桜ヶ丘団地入口,,34.4329765,132.4881052,51900 2,,0,,,,
51900 3,,桜ヶ丘団地入口,,34.43291661,132.4888024,51900 3,,0,,,,
51910 1,,専教寺前,,34.4305086,132.4901248,51910 1,,0,,,,
51910 2,,専教寺前,,34.4303374,132.4902253,51910 2,,0,,,,
51920 1,,大上,,34.4284338,132.4916857,51920 1,,0,,,,
51920 2,,大上,,34.4285659,132.4915626,51920 2,,0,,,,
51930 1,,百田団地,,34.425404,132.4930716,51930 1,,0,,,,
51930 2,,百田団地,,34.4258369,132.4926929,51930 2,,0,,,,
51940 1,,戸坂中学校,,34.42366777,132.4984687,51940 1,,0,,,,
51940 2,,戸坂中学校,,34.42356778,132.4984687,51940 2,,0,,,,
51941 1,,戸坂南二丁目,,34.4243801,132.4943788,51941 1,,0,,,,
51941 2,,戸坂南二丁目,,34.42448427,132.4941191,51941 2,,0,,,,
51943 1,,東浄小学校前,,34.42046,132.4997912,51943 1,,0,,,,
51943 2,,東浄小学校前,,34.420584784886366272306,132.4997687708667459965102,51943 2,,0,,,,
51944 1,,中山新町二丁目,,34.421685,132.4992166,51944 1,,0,,,,
51944 2,,中山新町二丁目,,34.421891,132.4990894,51944 2,,0,,,,
51950 1,,広島はくしま病院前,,34.4027528,132.4661564,51950 1,,0,,,,
51950 2,,広島はくしま病院前,,34.4024961,132.4659153,51950 2,,0,,,,
51960 1,,縮景園前,,34.40076964,132.4657558,51960 1,,0,,,,
51960 2,,縮景園前,,34.400328,132.4654029,51960 2,,0,,,,
51980 1,,新天地,,34.3903707,132.4626004,51980 1,,0,,,,
51980 2,,新天地,,34.3904704,132.4623908,51980 2,,0,,,,
51990 2,,富士見町,,34.3875963,132.4617642,51990 2,,0,,,,
51990 3,,富士見町,,34.3871797,132.4613729,51990 3,,0,,,,
51991 1,,田中町,,34.3878169,132.4636588,51991 1,,0,,,,
51991 2,,田中町,,34.3876857,132.4633828,51991 2,,0,,,,
5200 1,,大州四丁目,,34.3871418,132.4944048,5200 1,,0,,,,
5200 2,,大州四丁目,,34.3875616,132.4933187,5200 2,,0,,,,
52000 1,,保健所前,,34.3859419,132.4612672,52000 1,,0,,,,
52000 2,,保健所前,,34.3857287,132.4609251,52000 2,,0,,,,
52010 1,,南竹屋町,,34.3815866,132.4617997,52010 1,,0,,,,
52010 2,,南竹屋町,,34.3816127,132.4615619,52010 2,,0,,,,
52020 1,,広電ボウル前,,34.3796634,132.4611592,52020 1,,0,,,,
52020 2,,広電ボウル前,,34.3795901,132.460881,52020 2,,0,,,,
52030 1,,御幸橋,,34.3760872,132.4599482,52030 1,,0,,,,1
52030 2,,御幸橋,,34.3762234,132.4597318,52030 2,,0,,,,2
52030 3,,御幸橋,,34.3760532,132.4593103,52030 3,,0,,,,3
52030 4,,御幸橋,,34.3759976,132.4589769,52030 4,,0,,,,4
52040 1,,皆実町六丁目,,34.3744558,132.4634528,52040 1,,0,,,,
52040 2,,皆実町六丁目,,34.3740272,132.4639559,52040 2,,0,,,,
52050 1,,広大附属学校前,,34.3720555,132.4646281,52050 1,,0,,,,
52050 2,,広大附属学校前,,34.3711529,132.4645388,52050 2,,0,,,,
52060 1,,西翠町,,34.3698383,132.4648341,52060 1,,0,,,,
52060 2,,西翠町,,34.369754,132.4646622,52060 2,,0,,,,
52070 1,,県病院前,,34.3676618,132.4673748,52070 1,,0,,,,
52070 2,,県病院前,,34.3676988,132.4663468,52070 2,,0,,,,
52080 1,,県立広島大学前,,34.3674306,132.4707265,52080 1,,0,,,,1
52080 2,,県立広島大学前,,34.3673108,132.4693382,52080 2,,0,,,,2
52080 3,,県立広島大学前,,34.3688709,132.4703313,52080 3,,0,,,,3
52090 1,,中国自動車学校前,,34.3672806,132.4730725,52090 1,,0,,,,
52090 2,,中国自動車学校前,,34.3670166,132.4740005,52090 2,,0,,,,
5210 1,,新大州橋,,34.3848553,132.501137,5210 1,,0,,,,
5210 2,,新大州橋,,34.3850397,132.5012698,5210 2,,0,,,,
52100 1,,丹那町西,,34.3657348,132.476322,52100 1,,0,,,,
52100 2,,丹那町西,,34.3652274,132.4765376,52100 2,,0,,,,
52110 1,,丹那町,,34.3637571,132.4800795,52110 1,,0,,,,
52110 2,,丹那町,,34.3639033,132.4791961,52110 2,,0,,,,
52120 1,,仁保沖町,,34.3621325,132.4834692,52120 1,,0,,,,
52120 2,,仁保沖町,,34.3618359,132.4837944,52120 2,,0,,,,
52130 1,,平塚町,,34.3894322,132.4684023,52130 1,,0,,,,
52130 2,,平塚町,,34.3886462,132.4676414,52130 2,,0,,,,
52140 1,,並木通り入口,,34.3888685,132.4597192,52140 1,,0,,,,
52140 2,,並木通り入口,,34.3882994,132.4609933,52140 2,,0,,,,
5220 1,,向洋駅前,,34.3782474,132.5040527,5220 1,,0,,,,
5220 2,,向洋駅前,,34.3768667,132.5045473,5220 2,,0,,,,
5220 3,,向洋駅前,,34.3786553,132.5041504,5220 3,,0,,,,
5230 1,,青崎一丁目,,34.3738078,132.5074312,5230 1,,0,,,,
5230 2,,青崎一丁目,,34.3742138,132.5065304,5230 2,,0,,,,
52300 1,,空城山公園入口,,34.3839607,132.5103995,52300 1,,0,,,,
52300 2,,空城山公園入口,,34.384911,132.5104163,52300 2,,0,,,,
52310 1,,府中南小学校入口,,34.3814708,132.5102811,52310 1,,0,,,,
52310 2,,府中南小学校入口,,34.3810397,132.5102633,52310 2,,0,,,,
52320 1,,府中南公民館,,34.3797013,132.5079365,52320 1,,0,,,,
52320 2,,府中南公民館,,34.37957265,132.50792,52320 2,,0,,,,
52330 1,,鹿籠二丁目,,34.3822887,132.5054768,52330 1,,0,,,,
52330 2,,鹿籠二丁目,,34.381723,132.5055857,52330 2,,0,,,,
52340 1,,緑ヶ丘上,,34.3836808,132.5058939,52340 1,,0,,,,
52340 2,,緑ヶ丘上,,34.384064,132.5059333,52340 2,,0,,,,
52350 1,,緑ヶ丘,,34.3855298,132.5067342,52350 1,,0,,,,
52350 2,,緑ヶ丘,,34.3860009,132.5067061,52350 2,,0,,,,
52360 1,,牛田本町一丁目,,34.408634,132.4718037,52360 1,,0,,,,
52360 2,,牛田本町一丁目,,34.4093289,132.4715689,52360 2,,0,,,,
52370 1,,大学病院入口,,34.3802921,132.4759787,52370 1,,0,,,,
52370 2,,大学病院入口,,34.3802681,132.4754775,52370 2,,0,,,,
52380 1,,段原南,,34.3838876,132.4775411,52380 1,,0,,,,
52380 2,,段原南,,34.3832703,132.4772526,52380 2,,0,,,,
52390 1,,段原中央,,34.3862083,132.4762264,52390 1,,0,,,,1
52390 2,,段原中央,,34.3860499,132.4763725,52390 2,,0,,,,2
52390 3,,段原中央,,34.3875958,132.4772892,52390 3,,0,,,,3
52390 4,,段原中央,,34.386709,132.4770225,52390 4,,0,,,,4
5240 1,,青崎二丁目,,34.3739566,132.5099046,5240 1,,0,,,,
5240 2,,青崎二丁目,,34.3738867,132.5091593,5240 2,,0,,,,
52400 1,,牛田早稲田三丁目,,34.4163717,132.482281,52400 1,,0,,,,
52410 1,,江波トンネル北,,34.3663284,132.4334738,52410 1,,0,,,,
5250 1,,東堀越,,34.3746829,132.5144683,5250 1,,0,,,,
5250 2,,東堀越,,34.3747372,132.5159568,5250 2,,0,,,,
52580 1,,舟入小学校入口,,34.3781534,132.4386285,52580 1,,0,,,,
52580 2,,舟入小学校入口,,34.378381,132.438449,52580 2,,0,,,,
52590 1,,江波本町,,34.3677448,132.4342635,52590 1,,0,,,,
5260 1,,入川,,34.3740684,132.518901,5260 1,,0,,,,
5260 2,,入川,,34.3741053,132.5192041,5260 2,,0,,,,
52600 1,,南観音七丁目,,34.3803429,132.4279641,52600 1,,0,,,,
52600 2,,南観音七丁目,,34.38025451,132.4277099,52600 2,,0,,,,
5270 1,,船越町,,34.3718874,132.5259406,5270 1,,0,,,,
5270 2,,船越町,,34.3723539,132.5248138,5270 2,,0,,,,
5280 1,,海田,,34.3709691,132.5288211,5280 1,,0,,,,
5280 2,,海田,,34.3714486,132.5277729,5280 2,,0,,,,
5290 1,,海田市駅入口,,34.3702801,132.5298353,5290 1,,0,,,,
5290 2,,海田市駅入口,,34.3701746,132.5301469,5290 2,,0,,,,
52960 1,,白神社前,,34.3897341,132.4565345,52960 1,,0,,,,
52960 2,,白神社前,,34.3890802,132.4581066,52960 2,,0,,,,
5300 1,,海田大正町,,34.3685858,132.5319939,5300 1,,0,,,,1
5300 2,,海田大正町,,34.3684531,132.5323451,5300 2,,0,,,,2
5310 1,,南海田,,34.3636713,132.5336788,5310 1,,0,,,,
5310 2,,南海田,,34.3639853,132.5339534,5310 2,,0,,,,
5320 1,,自衛隊前,,34.35937527,132.5342854,5320 1,,0,,,,
5320 2,,自衛隊前,,34.3606915,132.53437,5320 2,,0,,,,
5440 1,,呉駅前,,34.2457669,132.5581149,5440 1,,0,,,,1
5440 11,,呉駅前,,34.24562119,132.5582553,5440 11,,0,,,,
5440 12,,呉駅前,,34.24558786,132.5586553,5440 12,,0,,,,
5440 2,,呉駅前,,34.2456524,132.5580036,5440 2,,0,,,,2
5440 3,,呉駅前,,34.2455394,132.5578849,5440 3,,0,,,,3
5440 4,,呉駅前,,34.2454127,132.557779,5440 4,,0,,,,4
5440 5,,呉駅前,,34.245285,132.5577656,5440 5,,0,,,,5
5440 6,,呉駅前,,34.2451396,132.5578058,5440 6,,0,,,,6
5440 7,,呉駅前,,34.2451949,132.5583814,5440 7,,0,,,,7
5440 8,,呉駅前,,34.2452912,132.5582377,5440 8,,0,,,,8
5440 9,,呉駅前,,34.2453818,132.5581786,5440 9,,0,,,,9
5450 1,,四道路・四ツ道路,,34.2436938,132.5654783,5450 1,,0,,,,1
5450 2,,四道路・四ツ道路,,34.24385483,132.5652548,5450 2,,0,,,,2
5460 1,,本通３丁目,,34.2450414,132.5668494,5460 1,,0,,,,1
5460 2,,本通３丁目,,34.2458734,132.5673472,5460 2,,0,,,,2
5470 1,,本通４丁目,,34.2471593,132.5690278,5470 1,,0,,,,
5470 2,,本通４丁目,,34.2473274,132.5687907,5470 2,,0,,,,
5480 2,,本通６丁目,,34.2499277,132.5742984,5480 2,,0,,,,
5480 3,,本通６丁目,,34.2496105,132.5741837,5480 3,,0,,,,
5500 1,,神崎,,34.3545804,132.535939,5500 1,,0,,,,
5500 2,,神崎,,34.3547586,132.5358933,5500 2,,0,,,,
5510 1,,神崎,,34.3547364,132.5369902,5510 1,,0,,,,
5510 2,,神崎,,34.355096,132.5365,5510 2,,0,,,,
5520 1,,矢野出張所,,34.35324267,132.538652,5520 1,,0,,,,
5520 2,,矢野出張所,,34.3530921,132.5388719,5520 2,,0,,,,
5530 1,,花上,,34.3513429,132.5388167,5530 1,,0,,,,
5530 2,,花上,,34.3508596,132.5391593,5530 2,,0,,,,
5540 1,,矢野東,,34.3483428,132.5390391,5540 1,,0,,,,
5540 2,,矢野東,,34.3480236,132.5389442,5540 2,,0,,,,
5550 1,,矢野祇園,,34.3458913,132.5383451,5550 1,,0,,,,
5550 2,,矢野祇園,,34.3453248,132.5387019,5550 2,,0,,,,
5560 1,,矢野稲荷町,,34.342126,132.5393537,5560 1,,0,,,,
5560 2,,矢野稲荷町,,34.3418896,132.5394926,5560 2,,0,,,,
5570 1,,矢野天神,,34.3383176,132.5407793,5570 1,,0,,,,
5570 2,,矢野天神,,34.3382265,132.5410213,5570 2,,0,,,,
5580 1,,天神上,,34.33384484,132.5440191,5580 1,,0,,,,
5580 2,,天神上,,34.33407814,132.5439524,5580 2,,0,,,,
5590 1,,昭和入口,,34.3272112,132.5484444,5590 1,,0,,,,
5590 2,,昭和入口,,34.3272225,132.5486469,5590 2,,0,,,,
5600 1,,鷹の巣,,34.328074,132.5502175,5600 1,,0,,,,
5600 2,,鷹の巣,,34.3283805,132.5504104,5600 2,,0,,,,
5610 1,,平谷説教場前,,34.3307905,132.5573893,5610 1,,0,,,,
5610 2,,平谷説教場前,,34.3308888,132.5576898,5610 2,,0,,,,
5620 1,,平谷,,34.3307233,132.5607124,5620 1,,0,,,,
5620 2,,平谷,,34.3307889,132.5610873,5620 2,,0,,,,
5630 1,,団地西入口,,34.3291186,132.5634732,5630 1,,0,,,,
5630 2,,団地西入口,,34.3294895,132.5631773,5630 2,,0,,,,
5640 1,,境橋,,34.32554609,132.565251,5640 1,,0,,,,
5640 2,,境橋,,34.3252845,132.5660172,5640 2,,0,,,,
5650 1,,熊野西防災交流センター前,,34.32514621,132.5692007,5650 1,,0,,,,
5650 2,,熊野西防災交流センター前,,34.3257402,132.5694296,5650 2,,0,,,,
5660 1,,熊野第三小学校,,34.32854583,132.5687006,5660 1,,0,,,,
5660 2,,熊野第三小学校,,34.32817921,132.5690506,5660 2,,0,,,,
5670 1,,北県営住宅前,,34.3308155,132.5671327,5670 1,,0,,,,
5670 2,,北県営住宅前,,34.33029563,132.5676506,5670 2,,0,,,,
5680 1,,熊野営業所,,34.3314478,132.5646919,5680 1,,0,,,,1
5680 2,,熊野営業所,,34.3315706,132.5647423,5680 2,,0,,,,2
5680 3,,熊野営業所,,34.3316906,132.5647939,5680 3,,0,,,,3
5690 1,,熊野川角,,34.33256208,132.5693504,5690 1,,0,,,,
5690 2,,熊野川角,,34.33286,132.5706697,5690 2,,0,,,,
5700 1,,出来庭,,34.3331,132.5744066,5700 1,,0,,,,
5700 2,,出来庭,,34.3331666,132.5741959,5700 2,,0,,,,
5720 1,,中溝,,34.3355503,132.580523,5720 1,,0,,,,
5720 2,,中溝,,34.3357702,132.580627,5720 2,,0,,,,
5770 1,,熊野萩原車庫前,,34.3411194,132.5866064,5770 1,,0,,,,
5780 1,,熊野萩原,,34.3426752,132.5886225,5780 1,,0,,,,
5780 2,,熊野萩原,,34.3427897,132.5886725,5780 2,,0,,,,
5980 1,,熊野中筋,,34.33436,132.5784028,5980 1,,0,,,,
5980 2,,熊野中筋,,34.3347133,132.5787542,5980 2,,0,,,,
5990 1,,熊野町役場前,,34.3366481,132.5836028,5990 1,,0,,,,
5990 2,,熊野町役場前,,34.3371047,132.5844989,5990 2,,0,,,,
6000 1,,熊野保育所前,,34.3379124,132.5858032,6000 1,,0,,,,
6000 2,,熊野保育所前,,34.3377424,132.585475,6000 2,,0,,,,
6010 1,,萩原下,,34.3388658,132.5889317,6010 1,,0,,,,
6010 2,,萩原下,,34.3390551,132.5895812,6010 2,,0,,,,
6020 1,,熊野馬場,,34.34009499,132.5912649,6020 1,,0,,,,
6020 2,,熊野馬場,,34.3401339,132.5911504,6020 2,,0,,,,
6030 1,,熊野消防署前,,34.342197,132.5901623,6030 1,,0,,,,
6030 2,,熊野消防署前,,34.3424258,132.5899198,6030 2,,0,,,,
6100 1,,広島国際大学,,34.3129795,132.6869913,6100 1,,0,,,,
6401 1,,呉地橋,,34.3295686,132.5787162,6401 1,,0,,,,
6401 2,,呉地橋,,34.329567,132.5787449,6401 2,,0,,,,
6410 1,,広瀬町,,34.4018301,132.4485711,6410 1,,0,,,,
6410 2,,広瀬町,,34.4019837,132.448259,6410 2,,0,,,,
6530 1,,合同庁舎前,,34.3986305,132.4620424,6530 1,,0,,,,
6560 1,,三篠町一丁目,,34.41241819,132.453673,6560 1,,0,,,,
6560 2,,三篠町一丁目,,34.4116286,132.4532025,6560 2,,0,,,,
6570 1,,三篠町三丁目,,34.4152723,132.454572,6570 1,,0,,,,
6570 2,,三篠町三丁目,,34.4164691,132.4549714,6570 2,,0,,,,
6580 1,,大芝町,,34.4218889,132.4593296,6580 1,,0,,,,
6580 2,,大芝町,,34.4218429,132.4589861,6580 2,,0,,,,
6590 1,,祇園大橋北,,34.42769999,132.4596884,6590 1,,0,,,,
6590 2,,祇園大橋北,,34.42895,132.4602906,6590 2,,0,,,,
6600 1,,西原,,34.4314387,132.4628343,6600 1,,0,,,,
6600 2,,西原,,34.4312895,132.4624844,6600 2,,0,,,,
6610 1,,ＮＨＫ放送所前,,34.43424938,132.465071,6610 1,,0,,,,
6610 2,,ＮＨＫ放送所前,,34.4336542,132.4645941,6610 2,,0,,,,
6620 1,,祇園出張所前,,34.43726576,132.4666374,6620 1,,0,,,,
6620 2,,祇園出張所前,,34.4379545,132.466781,6620 2,,0,,,,
6630 1,,今津,,34.44193196,132.4689037,6630 1,,0,,,,
6630 2,,今津,,34.4429729,132.468838,6630 2,,0,,,,
6640 1,,安佐南警察署前,,34.44721474,132.4696034,6640 1,,0,,,,
6640 2,,安佐南警察署前,,34.4465666,132.4693324,6640 2,,0,,,,
6650 1,,下古市,,34.4511893,132.4701759,6650 1,,0,,,,
6650 2,,下古市,,34.4513422,132.4699767,6650 2,,0,,,,
6660 1,,古市小学校前,,34.4557939,132.4720864,6660 1,,0,,,,
6660 2,,古市小学校前,,34.4550981,132.4713138,6660 2,,0,,,,
6670 1,,古市駅,,34.45779704,132.4749025,6670 1,,0,,,,
6670 2,,古市駅,,34.45783037,132.4753024,6670 2,,0,,,,
6810 1,,安佐南区福祉センター前,,34.4567897,132.4700964,6810 1,,0,,,,
6810 2,,安佐南区福祉センター前,,34.45646377,132.4703029,6810 2,,0,,,,
6820 1,,大町,,34.4613465,132.4659364,6820 1,,0,,,,
6820 2,,大町,,34.46029662,132.4661197,6820 2,,0,,,,
6830 1,,下緑井,,34.4615216,132.4778315,6830 1,,0,,,,
6830 2,,下緑井,,34.4610203,132.4773158,6830 2,,0,,,,
6840 1,,中緑井,,34.4662426,132.4773143,6840 1,,0,,,,
6840 2,,中緑井,,34.4663328,132.4770901,6840 2,,0,,,,
6850 1,,七軒茶屋,,34.4720651,132.4818145,6850 1,,0,,,,
6850 2,,七軒茶屋,,34.4714744,132.4811966,6850 2,,0,,,,
6860 1,,上緑井,,34.4745715,132.484602,6860 1,,0,,,,
6860 2,,上緑井,,34.4752521,132.4852435,6860 2,,0,,,,
6870 1,,下八木,,34.4767826,132.4874939,6870 1,,0,,,,
6870 2,,下八木,,34.4772274,132.4880319,6870 2,,0,,,,
6880 1,,八木梅林,,34.4814615,132.4955597,6880 1,,0,,,,
6880 2,,八木梅林,,34.4810349,132.4946727,6880 2,,0,,,,
6890 1,,八木峠,,34.4840405,132.5000858,6890 1,,0,,,,
6890 2,,八木峠,,34.4842185,132.5002529,6890 2,,0,,,,
6900 1,,八木小学校前,,34.4871116,132.504393,6900 1,,0,,,,
6900 2,,八木小学校前,,34.487413,132.5045314,6900 2,,0,,,,
6910 1,,中八木,,34.4903603,132.5061686,6910 1,,0,,,,
6910 2,,中八木,,34.4906846,132.5062207,6910 2,,0,,,,
6920 1,,太田川橋,,34.4952103,132.5082542,6920 1,,0,,,,
6920 2,,太田川橋,,34.4950285,132.5080447,6920 2,,0,,,,
6930 1,,太田川橋東,,34.4979865,132.5126843,6930 1,,0,,,,
6930 2,,太田川橋東,,34.4991736,132.5123436,6930 2,,0,,,,
6940 1,,中島駅口,,34.5011614,132.5130258,6940 1,,0,,,,
6940 2,,中島駅口,,34.501408,132.5128924,6940 2,,0,,,,
6950 1,,広島文教大学入口,,34.5059084,132.5135768,6950 1,,0,,,,
6950 2,,広島文教大学入口,,34.5061878,132.5132486,6950 2,,0,,,,
6960 1,,下の浜,,34.508956,132.511693,6960 1,,0,,,,
6960 2,,下の浜,,34.5095727,132.5110786,6960 2,,0,,,,
6970 2,,可部駅前,,34.5122925,132.5105304,6970 2,,0,,,,2
6970 4,,可部駅前,,34.512136,132.5105794,6970 4,,0,,,,4
6970 5,,可部駅前,,34.512334,132.510226,6970 5,,0,,,,5
6980 1,,可部中央,,34.5158423,132.5099859,6980 1,,0,,,,
6980 2,,可部中央,,34.5168808,132.510249,6980 2,,0,,,,
6990 1,,可部上市,,34.5202815,132.5119468,6990 1,,0,,,,
6990 2,,可部上市,,34.5206672,132.5119542,6990 2,,0,,,,
7000 1,,可部中学校前,,34.5240799,132.513361,7000 1,,0,,,,
7000 2,,可部中学校前,,34.5247691,132.5134919,7000 2,,0,,,,
7010 1,,南原口,,34.5284208,132.5152097,7010 1,,0,,,,
7010 2,,南原口,,34.529539,132.5157994,7010 2,,0,,,,
7020 1,,下町屋,,34.5345259,132.5204875,7020 1,,0,,,,
7020 2,,下町屋,,34.5338193,132.519666,7020 2,,0,,,,
7030 1,,町屋記念碑前,,34.5396733,132.5262771,7030 1,,0,,,,
7030 2,,町屋記念碑前,,34.5396999,132.5261194,7030 2,,0,,,,
7040 1,,町屋,,34.5434318,132.5307956,7040 1,,0,,,,
7040 2,,町屋,,34.5432441,132.5304421,7040 2,,0,,,,
7050 1,,上町屋,,34.5470385,132.5354404,7050 1,,0,,,,
7050 2,,上町屋,,34.5468386,132.5350061,7050 2,,0,,,,
7060 1,,下大林,,34.5499168,132.5394196,7060 1,,0,,,,
7060 2,,下大林,,34.5497154,132.5389959,7060 2,,0,,,,
7070 1,,大林,,34.5549888,132.5450487,7070 1,,0,,,,
7070 2,,大林,,34.5540972,132.5441192,7070 2,,0,,,,
7080 1,,大杉,,34.5571593,132.5472018,7080 1,,0,,,,
7080 2,,大杉,,34.5568356,132.5466149,7080 2,,0,,,,
7090 1,,浜ヶ谷,,34.5645834,132.5538493,7090 1,,0,,,,
7090 2,,浜ヶ谷,,34.5640421,132.5529233,7090 2,,0,,,,
7100 1,,中大林,,34.5703522,132.5601895,7100 1,,0,,,,
7100 2,,中大林,,34.5701703,132.5596837,7100 2,,0,,,,
7110 1,,上大林,,34.5729298,132.5641677,7110 1,,0,,,,
7110 2,,上大林,,34.57310293,132.5641731,7110 2,,0,,,,
7120 1,,根の谷下,,34.5781903,132.5718001,7120 1,,0,,,,
7120 2,,根の谷下,,34.5778234,132.5711735,7120 2,,0,,,,
7130 1,,根の谷,,34.5855496,132.5707362,7130 1,,0,,,,
7130 2,,根の谷,,34.5850708,132.5707835,7130 2,,0,,,,
7140 1,,上根峠,,34.5820784,132.579033,7140 1,,0,,,,
7140 2,,上根峠,,34.5817668,132.5788189,7140 2,,0,,,,
71430 1,,サンプラザ前,,34.3706025,132.3950187,71430 1,,0,,,,
71430 2,,サンプラザ前,,34.37128823,132.3950131,71430 2,,0,,,,
7150 1,,畑入口,,34.5840489,132.5797263,7150 1,,0,,,,
7150 2,,畑入口,,34.5838586,132.5795596,7150 2,,0,,,,
7160 1,,中上根,,34.5871367,132.581266,7160 1,,0,,,,
7160 2,,中上根,,34.5867814,132.5808285,7160 2,,0,,,,
71650 1,,商工センター１丁目,,34.3710883,132.3980295,71650 1,,0,,,,
71650 2,,商工センター１丁目,,34.37070502,132.3983962,71650 2,,0,,,,
7170 1,,八千代小学校前,,34.5909915,132.584456,7170 1,,0,,,,
7170 2,,八千代小学校前,,34.5903893,132.5838474,7170 2,,0,,,,
7180 1,,下根,,34.5957053,132.5882827,7180 1,,0,,,,
7180 2,,下根,,34.596337,132.5886197,7180 2,,0,,,,
7190 1,,中下根,,34.6033948,132.5944579,7190 1,,0,,,,
7190 2,,中下根,,34.6024669,132.5935352,7190 2,,0,,,,
7200 1,,下根宮の上,,34.605721,132.5963296,7200 1,,0,,,,
7200 2,,下根宮の上,,34.6070459,132.5971995,7200 2,,0,,,,
7210 1,,上佐々井,,34.6120239,132.601254,7210 1,,0,,,,
7210 2,,上佐々井,,34.6114539,132.6006865,7210 2,,0,,,,
72150 1,,竹屋町西,,34.3847586,132.4597383,72150 1,,0,,,,
72150 2,,竹屋町西,,34.3840264,132.4590102,72150 2,,0,,,,
7220 1,,八千代支所前,,34.6194518,132.6074564,7220 1,,0,,,,
7220 2,,八千代支所前,,34.6201266,132.6079982,7220 2,,0,,,,
7230 1,,五郎丸橋,,34.6224433,132.6112207,7230 1,,0,,,,
7230 2,,五郎丸橋,,34.6223727,132.6109202,7230 2,,0,,,,
7240 1,,水無,,34.6266247,132.6172801,7240 1,,0,,,,
7240 2,,水無,,34.6268196,132.617242,7240 2,,0,,,,
7250 1,,勝田,,34.6294634,132.6206159,7250 1,,0,,,,
7250 2,,勝田,,34.6297603,132.6208155,7250 2,,0,,,,
7260 1,,入江,,34.6289614,132.6428653,7260 1,,0,,,,
7260 2,,入江,,34.6291703,132.6444691,7260 2,,0,,,,
7270 1,,桂峠,,34.6329242,132.6503841,7270 1,,0,,,,
7270 2,,桂峠,,34.6325188,132.649385,7270 2,,0,,,,
72760 1,,日赤病院前,,34.3801481,132.4562152,72760 1,,0,,,,
72760 2,,日赤病院前,,34.3806593,132.4562059,72760 2,,0,,,,
7280 1,,高野,,34.6349925,132.6532242,7280 1,,0,,,,
7280 2,,高野,,34.6354256,132.6536175,7280 2,,0,,,,
72820 1,,幟町,,34.3970163,132.4684665,72820 1,,0,,,,
7290 1,,桂,,34.6389871,132.6588763,7290 1,,0,,,,
7290 2,,桂,,34.6383686,132.6578455,7290 2,,0,,,,
7300 1,,大和重工前,,34.6425076,132.6638632,7300 1,,0,,,,
7300 2,,大和重工前,,34.6421485,132.663177,7300 2,,0,,,,
73010 1,,東翠町,,34.3712807,132.4707794,73010 1,,0,,,,
73010 2,,東翠町,,34.3699487,132.4708413,73010 2,,0,,,,
7310 1,,宮の城,,34.6456786,132.6685913,7310 1,,0,,,,
7310 2,,宮の城,,34.6458358,132.6686239,7310 2,,0,,,,
7320 1,,愛郷小学校,,34.6477565,132.6722094,7320 1,,0,,,,
7320 2,,愛郷小学校,,34.6479039,132.6721546,7320 2,,0,,,,
73250 1,,広電本社前,,34.3771652,132.4581504,73250 1,,0,,,,
73250 2,,広電本社前,,34.3781386,132.4578516,73250 2,,0,,,,
7330 1,,山手,,34.6496686,132.6755802,7330 1,,0,,,,
7330 2,,山手,,34.6495613,132.6750688,7330 2,,0,,,,
7340 1,,一本木,,34.6529655,132.6813457,7340 1,,0,,,,
7340 2,,一本木,,34.6530358,132.681108,7340 2,,0,,,,
7350 1,,常友,,34.6545934,132.6845677,7350 1,,0,,,,
7350 2,,常友,,34.6542512,132.6832962,7350 2,,0,,,,
7360 1,,馬橋,,34.6569775,132.6946164,7360 1,,0,,,,
7360 2,,馬橋,,34.6568829,132.693812,7360 2,,0,,,,
7470 1,,青迫,,34.6622141,132.6997945,7470 1,,0,,,,
7470 2,,青迫,,34.6612684,132.6992648,7470 2,,0,,,,
7480 1,,吉田病院,,34.6653684,132.7013351,7480 1,,0,,,,
7480 2,,吉田病院,,34.6649906,132.700881,7480 2,,0,,,,
750 1,,宮内串戸駅,,34.34798947,132.3235367,750 1,,0,,,,1
750 2,,宮内串戸駅,,34.348219,132.3235921,750 2,,0,,,,2
7500 1,,吉田小学校,,34.6673248,132.7072627,7500 1,,0,,,,
7510 1,,広電吉田出張所,,34.6660696,132.7110125,7510 1,,0,,,,
770 1,,北山トンネル,,34.34900587,132.3144875,770 1,,0,,,,
770 2,,北山トンネル,,34.34900588,132.3149874,770 2,,0,,,,
772 1,,宮内郵便局,,34.3481057,132.3107006,772 1,,0,,,,
772 2,,宮内郵便局,,34.3472668,132.3095679,772 2,,0,,,,
772 3,,宮内郵便局,,34.3482966,132.3095207,772 3,,0,,,,
780 1,,宮内農協,,34.3461519,132.3076476,780 1,,0,,,,
780 2,,宮内農協,,34.3461267,132.3077802,780 2,,0,,,,
7820 1,,巴橋,,34.8069373,132.8494258,7820 1,,0,,,,
7820 2,,巴橋,,34.8065572,132.8506565,7820 2,,0,,,,
7830 1,,三次市役所前,,34.8061018,132.8519718,7830 1,,0,,,,
7830 2,,三次市役所前,,34.8059052,132.8523371,7830 2,,0,,,,
7840 1,,ＮＴＴ前,,34.8053896,132.8543831,7840 1,,0,,,,
7840 2,,ＮＴＴ前,,34.8050887,132.8550562,7840 2,,0,,,,
7850 2,,三次駅前,,34.802922,132.8547924,7850 2,,0,,,,2
7850 3,,三次駅前,,34.803000082393469227513,132.8547883444354673830698,7850 3,,0,,,,3
7850 4,,三次駅前,,34.803150070098038694504,132.8549883207301715368194,7850 4,,0,,,,4
790 1,,六本松口,,34.3446867,132.305402,790 1,,0,,,,
790 2,,六本松口,,34.34505615,132.3061717,790 2,,0,,,,
800 1,,佐原田,,34.3424209,132.3019085,800 1,,0,,,,
800 2,,佐原田,,34.3426252,132.3024183,800 2,,0,,,,
80006 1,,眼鏡橋,,34.2410463,132.5625865,80006 1,,0,,,,
80006 2,,眼鏡橋,,34.2411282,132.5629906,80006 2,,0,,,,
80007 1,,教育隊前,,34.2391735,132.5606757,80007 1,,0,,,,
80007 2,,教育隊前,,34.2392537,132.5610958,80007 2,,0,,,,
80008 1,,総監部前,,34.2361245,132.5611024,80008 1,,0,,,,
80008 2,,総監部前,,34.2358343,132.5613135,80008 2,,0,,,,
80008 3,,総監部前,,34.2358851,132.5609789,80008 3,,0,,,,
80009 1,,子規句碑前,,34.2324937,132.5604295,80009 1,,0,,,,
80009 2,,子規句碑前,,34.2324439,132.5607346,80009 2,,0,,,,
80010 1,,ＩＨＩ前,,34.2292275,132.5575291,80010 1,,0,,,,
80010 2,,ＩＨＩ前,,34.23058947,132.5589393,80010 2,,0,,,,
80011 1,,昭和埠頭前,,34.2284452,132.5526298,80011 1,,0,,,,
80011 2,,昭和埠頭前,,34.2283052,132.552615,80011 2,,0,,,,
80012 1,,潜水隊前,,34.2265808,132.5501941,80012 1,,0,,,,
80012 2,,潜水隊前,,34.2265998,132.5504233,80012 2,,0,,,,
80013 1,,貿易倉庫前,,34.2253801,132.5489758,80013 1,,0,,,,
80013 2,,貿易倉庫前,,34.225102,132.548885,80013 2,,0,,,,
80014 1,,淀川製鋼前,,34.2251718,132.5455819,80014 1,,0,,,,
80014 2,,淀川製鋼前,,34.2251777,132.5463779,80014 2,,0,,,,
80015 2,,昭和町,,34.2245555,132.5451417,80015 2,,0,,,,
80016 1,,日本製鉄前,,34.2241975,132.5445017,80016 1,,0,,,,
80016 2,,日本製鉄前,,34.2231411,132.5449594,80016 2,,0,,,,
80016 3,,日本製鉄前,,34.2234533,132.5436212,80016 3,,0,,,,
80017 1,,警固屋まちづくりセンター前,,34.2149132,132.54519,80017 1,,0,,,,
80017 2,,警固屋まちづくりセンター前,,34.2148654,132.5453903,80017 2,,0,,,,
80018 2,,大正橋,,34.2132989,132.545765,80018 2,,0,,,,
80019 1,,鍋桟橋,,34.21140795,132.5449913,80019 1,,0,,,,
80019 2,,鍋桟橋,,34.21134129,132.545158,80019 2,,0,,,,
80020 1,,呉信警固屋支店前,,34.2102492,132.5455735,80020 1,,0,,,,
80020 2,,呉信警固屋支店前,,34.2098032,132.5454402,80020 2,,0,,,,
80021 1,,警固屋５丁目,,34.2073024,132.5445537,80021 1,,0,,,,
80021 2,,警固屋５丁目,,34.2076239,132.5447135,80021 2,,0,,,,
80022 1,,警固屋ドック前,,34.20570854,132.5441083,80022 1,,0,,,,
80022 2,,警固屋ドック前,,34.2057741,132.5442961,80022 2,,0,,,,
80023 1,,警固屋市民センター,,34.202139,132.5411267,80023 1,,0,,,,
80023 2,,警固屋市民センター,,34.2016378,132.5411513,80023 2,,0,,,,
80024 1,,警固屋中学校,,34.2001524,132.5409503,80024 1,,0,,,,
80024 2,,警固屋中学校,,34.1997157,132.5409867,80024 2,,0,,,,
80025 1,,音戸渡船口,,34.196485,132.5391608,80025 1,,0,,,,
80025 2,,音戸渡船口,,34.1969094,132.5395487,80025 2,,0,,,,
80026 1,,清盛塚,,34.1941419,132.5362544,80026 1,,0,,,,
80026 2,,清盛塚,,34.1937429,132.5355301,80026 2,,0,,,,
80027 1,,音戸桟橋,,34.1915276,132.5331116,80027 1,,0,,,,
80027 2,,音戸桟橋,,34.1923921,132.5335868,80027 2,,0,,,,
80028 1,,音戸市民センター,,34.1892434,132.5334209,80028 1,,0,,,,
80028 2,,音戸市民センター,,34.1890935,132.5336507,80028 2,,0,,,,
80029 1,,高須,,34.1872337,132.5372736,80029 1,,0,,,,
80029 2,,高須,,34.1873337,132.5372818,80029 2,,0,,,,
80030 1,,御所の浦,,34.18741044,132.5404261,80030 1,,0,,,,
80030 2,,御所の浦,,34.1874982,132.5403926,80030 2,,0,,,,
80031 1,,双見,,34.1882982,132.5453745,80031 1,,0,,,,
80031 2,,双見,,34.1883205,132.5452667,80031 2,,0,,,,
80032 1,,外双見,,34.1867838,132.5475895,80032 1,,0,,,,
80032 2,,外双見,,34.1870838,132.547583,80032 2,,0,,,,
80033 1,,竹田浜,,34.1842653,132.5496327,80033 1,,0,,,,
80033 2,,竹田浜,,34.1846696,132.5499861,80033 2,,0,,,,
80034 1,,水産海洋技術センター入口,,34.18144458,132.5501089,80034 1,,0,,,,
80034 2,,水産海洋技術センター入口,,34.1814189,132.5502156,80034 2,,0,,,,
80035 1,,波多見,,34.1776793,132.5483433,80035 1,,0,,,,
80035 2,,波多見,,34.1773317,132.5483489,80035 2,,0,,,,
80036 1,,田之浦,,34.1756385,132.5444575,80036 1,,0,,,,
80036 2,,田之浦,,34.1746828,132.5429273,80036 2,,0,,,,
80037 1,,請石,,34.1709655,132.5408948,80037 1,,0,,,,
80037 2,,請石,,34.1710633,132.5409257,80037 2,,0,,,,
80038 1,,赤崎,,34.1642161,132.5335027,80038 1,,0,,,,
80038 2,,赤崎,,34.1645238,132.5331326,80038 2,,0,,,,
80039 1,,あかさき東,,34.1626974,132.5341462,80039 1,,0,,,,
80039 2,,あかさき東,,34.1626218,132.5340527,80039 2,,0,,,,
80040 1,,有清東,,34.1608064,132.5245015,80040 1,,0,,,,
80040 2,,有清東,,34.1607241,132.524498,80040 2,,0,,,,
80041 1,,奥の内,,34.1590064,132.5222787,80041 1,,0,,,,
80041 2,,奥の内,,34.1587255,132.5221924,80041 2,,0,,,,
80042 1,,先奥,,34.1553334,132.5202852,80042 1,,0,,,,
80042 2,,先奥,,34.15488022,132.519846,80042 2,,0,,,,
80043 1,,明徳中学校,,34.1501794,132.5135745,80043 1,,0,,,,
80043 2,,明徳中学校,,34.1501063,132.5136885,80043 2,,0,,,,
80044 1,,藤の脇,,34.1475297,132.5102949,80044 1,,0,,,,
80044 2,,藤の脇,,34.147482,132.5105184,80044 2,,0,,,,
80045 1,,釣士田郵便局前,,34.1447865,132.5095914,80045 1,,0,,,,
80045 2,,釣士田郵便局前,,34.1447578,132.5096645,80045 2,,0,,,,
80046 1,,釣士田造船所前,,34.1408707,132.5088075,80046 1,,0,,,,
80046 2,,釣士田造船所前,,34.140896,132.509079,80046 2,,0,,,,
80047 1,,釣士田南,,34.1388007,132.507416,80047 1,,0,,,,
80047 2,,釣士田南,,34.1372586,132.5071208,80047 2,,0,,,,
80048 1,,宇和木新開,,34.1317159,132.5030693,80048 1,,0,,,,
80048 2,,宇和木新開,,34.1308481,132.5030673,80048 2,,0,,,,
80049 1,,大白明橋,,34.1300215,132.5017131,80049 1,,0,,,,
80049 2,,大白明橋,,34.1299837,132.5020213,80049 2,,0,,,,
80050 1,,宇和木,,34.1280206,132.5002822,80050 1,,0,,,,
80050 2,,宇和木,,34.1276994,132.5003052,80050 2,,0,,,,
80051 1,,火山登山口,,34.1110791,132.5056277,80051 1,,0,,,,
80051 2,,火山登山口,,34.1105225,132.5052659,80051 2,,0,,,,
80052 1,,上河内,,34.1088327,132.5040232,80052 1,,0,,,,
80052 2,,上河内,,34.1087493,132.5042025,80052 2,,0,,,,
80053 1,,倉橋本浦,,34.1043776,132.5049947,80053 1,,0,,,,
80053 2,,倉橋本浦,,34.104442,132.5049179,80053 2,,0,,,,
80054 1,,本浦,,34.1039688,132.506711,80054 1,,0,,,,
80054 2,,本浦,,34.1040543,132.5066855,80054 2,,0,,,,
80055 1,,才の木,,34.1033434,132.5094921,80055 1,,0,,,,
80055 2,,才の木,,34.1032267,132.5098832,80055 2,,0,,,,
80056 1,,桂浜･温泉館,,34.1018691,132.5120588,80056 1,,0,,,,
80087 1,,音戸の瀬戸,,34.1940208,132.5381812,80087 1,,0,,,,
80087 2,,音戸の瀬戸,,34.1940886,132.53822,80087 2,,0,,,,
80113 1,,青山町,,34.2406274,132.5656505,80113 1,,0,,,,
80113 2,,青山町,,34.2406075,132.5657831,80113 2,,0,,,,
80114 1,,国立病院,,34.2396631,132.5646786,80114 1,,0,,,,
80114 2,,国立病院,,34.2399532,132.5651204,80114 2,,0,,,,
80115 1,,入船山公園,,34.2386644,132.5636314,80115 1,,0,,,,
80115 2,,入船山公園,,34.2389021,132.5640605,80115 2,,0,,,,
80116 1,,宮原中学校前,,34.2282386,132.5575679,80116 1,,0,,,,
80116 2,,宮原中学校前,,34.2281319,132.557637,80116 2,,0,,,,
80117 1,,串山,,34.2257177,132.554709,80117 1,,0,,,,
80117 2,,串山,,34.2258533,132.5554209,80117 2,,0,,,,
80118 1,,坪の内町,,34.2222626,132.5533952,80118 1,,0,,,,
80118 2,,坪の内町,,34.222334,132.5536462,80118 2,,0,,,,
80119 1,,本町,,34.2438482,132.5695872,80119 1,,0,,,,
80119 2,,本町,,34.244588144793955627038,132.5685878261826115285708,80119 2,,0,,,,
80120 1,,和庄小学校下,,34.2425407,132.5701662,80120 1,,0,,,,1
80120 2,,和庄小学校下,,34.242434,132.5702374,80120 2,,0,,,,2
80120 3,,和庄小学校下,,34.2422585,132.5705972,80120 3,,0,,,,3
80120 4,,和庄小学校下,,34.2421652,132.5707104,80120 4,,0,,,,4
80121 1,,清水１丁目,,34.2403664,132.5691934,80121 1,,0,,,,
80121 2,,清水１丁目,,34.2401907,132.569208,80121 2,,0,,,,
80122 1,,宮原１丁目,,34.2362844,132.5671875,80122 1,,0,,,,
80122 2,,宮原１丁目,,34.2365001,132.5677638,80122 2,,0,,,,
80123 2,,宮原２丁目,,34.2351591,132.5660823,80123 2,,0,,,,
80124 1,,宮原３丁目,,34.2352535,132.5650724,80124 1,,0,,,,
80124 2,,宮原３丁目,,34.2346991,132.5645503,80124 2,,0,,,,
80125 1,,宮原４丁目,,34.2339613,132.5628662,80125 1,,0,,,,
80125 2,,宮原４丁目,,34.2337414,132.5626605,80125 2,,0,,,,
80126 1,,宮原５丁目,,34.2321382,132.5616058,80126 1,,0,,,,
80126 2,,宮原５丁目,,34.2320293,132.5616225,80126 2,,0,,,,
80127 1,,宮原７丁目,,34.2307229,132.5608004,80127 1,,0,,,,
80127 2,,宮原７丁目,,34.2306607,132.5608337,80127 2,,0,,,,
80128 1,,宮原８丁目,,34.229113,132.5592814,80128 1,,0,,,,
80128 2,,宮原８丁目,,34.2293017,132.559615,80128 2,,0,,,,
80129 1,,宮原９丁目,,34.2275199,132.5580535,80129 1,,0,,,,
80129 2,,宮原９丁目,,34.2273309,132.5580234,80129 2,,0,,,,
80130 1,,宮原１１丁目,,34.22544,132.5565989,80130 1,,0,,,,
80130 2,,宮原１１丁目,,34.2256411,132.5567106,80130 2,,0,,,,
80131 1,,宮原１２丁目,,34.2238101,132.5553967,80131 1,,0,,,,
80131 2,,宮原１２丁目,,34.2236746,132.5554663,80131 2,,0,,,,
80132 1,,宮原１３丁目北,,34.2218414,132.555163,80132 1,,0,,,,
80132 2,,宮原１３丁目北,,34.2212538,132.5549722,80132 2,,0,,,,
80133 1,,宮原１３丁目,,34.2199882,132.5531071,80133 1,,0,,,,
80133 2,,宮原１３丁目,,34.2196572,132.5529649,80133 2,,0,,,,
80134 1,,鍋峠,,34.2204048,132.5514342,80134 1,,0,,,,1
80134 2,,鍋峠,,34.2201949,132.5511625,80134 2,,0,,,,2
80134 3,,鍋峠,,34.22095705,132.5522403,80134 3,,0,,,,3
80134 4,,鍋峠,,34.22100705,132.5524902,80134 4,,0,,,,4
80135 1,,鍋山団地,,34.2179585,132.5483607,80135 1,,0,,,,
80135 2,,鍋山団地,,34.2180853,132.5485173,80135 2,,0,,,,
80136 1,,警固屋１丁目,,34.2156709,132.5473998,80136 1,,0,,,,
80136 2,,警固屋１丁目,,34.2156086,132.547353,80136 2,,0,,,,
80137 1,,警固屋３丁目,,34.21380773,132.5472577,80137 1,,0,,,,
80137 2,,警固屋３丁目,,34.2138498,132.5473506,80137 2,,0,,,,
80138 1,,警固屋４丁目,,34.2120779,132.5465846,80138 1,,0,,,,
80138 2,,警固屋４丁目,,34.212099,132.5468063,80138 2,,0,,,,
80140 1,,中通１丁目,,34.2427049,132.5628433,80140 1,,0,,,,
80140 2,,中通１丁目,,34.2428499,132.5630573,80140 2,,0,,,,
80140 3,,中通１丁目,,34.2434221,132.5622768,80140 3,,0,,,,
80141 1,,四道路,,34.2437469,132.5655308,80141 1,,0,,,,1
80141 2,,四道路,,34.2438149,132.5652122,80141 2,,0,,,,2
80141 3,,四道路,,34.2422939,132.5652227,80141 3,,0,,,,3
80141 4,,四道路,,34.2426539,132.5649273,80141 4,,0,,,,4
80142 1,,本通３丁目,,34.2451592,132.5669696,80142 1,,0,,,,1
80142 2,,本通３丁目,,34.2459031,132.5673829,80142 2,,0,,,,2
80142 3,,本通３丁目,,34.2447549,132.5662107,80142 3,,0,,,,3
80143 1,,本通４丁目,,34.2470616,132.5689314,80143 1,,0,,,,
80143 2,,本通４丁目,,34.2472201,132.5686799,80143 2,,0,,,,
80144 1,,本通５丁目,,34.24885442,132.5721207,80144 1,,0,,,,
80144 2,,本通５丁目,,34.2487955,132.5713528,80144 2,,0,,,,
80145 1,,本通６丁目,,34.2495584,132.5740371,80145 1,,0,,,,
80145 2,,本通６丁目,,34.249914,132.5742614,80145 2,,0,,,,
80146 1,,本通７丁目,,34.250422,132.5762576,80146 1,,0,,,,
80146 2,,本通７丁目,,34.250735,132.5765613,80146 2,,0,,,,
80147 1,,本通８丁目,,34.2509411,132.5792252,80147 1,,0,,,,
80147 2,,本通８丁目,,34.2511437,132.5795569,80147 2,,0,,,,
80149 10,,東畑,,34.25227096,132.586086,80149 10,,0,,,,
80150 1,,呉越,,34.2524794,132.5880433,80150 1,,0,,,,
80150 2,,呉越,,34.25258,132.5874671,80150 2,,0,,,,
80151 1,,新畑,,34.2524477,132.5911811,80151 1,,0,,,,
80151 2,,新畑,,34.2528254,132.5904331,80151 2,,0,,,,
80156 1,,阿賀海岸通,,34.2391366,132.5978671,80156 1,,0,,,,
80156 2,,阿賀海岸通,,34.2383136,132.5982122,80156 2,,0,,,,
80156 3,,阿賀海岸通,,34.2379712,132.5981145,80156 3,,0,,,,
80158 1,,小倉新開,,34.235827,132.6037843,80158 1,,0,,,,
80158 2,,小倉新開,,34.2362287,132.6034684,80158 2,,0,,,,
80160 1,,広大橋,,34.23409,132.6103348,80160 1,,0,,,,
80160 2,,広大橋,,34.2343317,132.6103403,80160 2,,0,,,,
80161 1,,新広駅,,34.2328449,132.614754,80161 1,,0,,,,
80163 1,,二級橋,,34.2321651,132.6185099,80163 1,,0,,,,
80163 2,,二級橋,,34.2327146,132.61763,80163 2,,0,,,,
80165 1,,オークアリーナ入口,,34.2298479,132.6263447,80165 1,,0,,,,
80165 2,,オークアリーナ入口,,34.2302168,132.6256468,80165 2,,0,,,,
80167 1,,白岳入口,,34.2275522,132.6339116,80167 1,,0,,,,
80167 2,,白岳入口,,34.2273189,132.6351441,80167 2,,0,,,,
80169 1,,白石,,34.2254016,132.6411809,80169 1,,0,,,,
80169 2,,白石,,34.2255663,132.6409443,80169 2,,0,,,,
80170 1,,西神町,,34.2247909,132.6503101,80170 1,,0,,,,
80170 2,,西神町,,34.2246862,132.6510813,80170 2,,0,,,,
80171 1,,汐込川,,34.2234631,132.6548385,80171 1,,0,,,,
80171 2,,汐込川,,34.223602,132.6547031,80171 2,,0,,,,
80172 1,,仁方駅前,,34.2224831,132.6565604,80172 1,,0,,,,
80172 2,,仁方駅前,,34.222069,132.6568998,80172 2,,0,,,,
80173 1,,大東踏切前,,34.2211111,132.6575623,80173 1,,0,,,,
80173 2,,大東踏切前,,34.2209212,132.6578355,80173 2,,0,,,,
80187 1,,仁方桟橋入口,,34.2196946,132.6570955,80187 1,,0,,,,
80187 2,,仁方桟橋入口,,34.2197466,132.6573194,80187 2,,0,,,,
80193 1,,三条３丁目,,34.2484964,132.5549453,80193 1,,0,,,,
80193 3,,三条３丁目,,34.248189,132.5541226,80193 3,,0,,,,
80194 1,,三条１丁目,,34.2450427,132.5508783,80194 1,,0,,,,
80194 2,,三条１丁目,,34.2446141,132.5502388,80194 2,,0,,,,
80195 1,,海岸２丁目,,34.2459447,132.5465708,80195 1,,0,,,,
80195 2,,海岸２丁目,,34.2463237,132.5461788,80195 2,,0,,,,
80196 1,,海岸３丁目,,34.24658751,132.5442064,80196 1,,0,,,,
80196 2,,海岸３丁目,,34.246853,132.5433031,80196 2,,0,,,,
80197 1,,海岸４丁目,,34.24803726,132.5389901,80197 1,,0,,,,
80197 2,,海岸４丁目,,34.2482594,132.5393461,80197 2,,0,,,,
80198 1,,海上保安大学校入口,,34.2459807,132.5336451,80198 1,,0,,,,
80198 2,,海上保安大学校入口,,34.24638736,132.5344906,80198 2,,0,,,,
80199 1,,若葉町,,34.2456454,132.5300737,80199 1,,0,,,,
80199 2,,若葉町,,34.2451559,132.530867,80199 2,,0,,,,
80200 1,,瀬戸見町入口,,34.2474849,132.5300178,80200 1,,0,,,,
80200 2,,瀬戸見町入口,,34.2475466,132.5302292,80200 2,,0,,,,
80201 1,,池の浦,,34.2494203,132.5308407,80201 1,,0,,,,
80201 2,,池の浦,,34.249637,132.5309775,80201 2,,0,,,,
80202 1,,潭鼓,,34.2531599,132.5306413,80202 1,,0,,,,
80202 2,,潭鼓,,34.2536612,132.5306353,80202 2,,0,,,,
80203 1,,神賀橋,,34.25716945,132.5296072,80203 1,,0,,,,
80203 2,,神賀橋,,34.2566445,132.5301381,80203 2,,0,,,,
80204 1,,吉浦駅前,,34.2579565,132.5275912,80204 1,,0,,,,
80204 2,,吉浦駅前,,34.2587164,132.5262179,80204 2,,0,,,,
80205 1,,かるが,,34.2638126,132.5171021,80205 1,,0,,,,
80205 2,,かるが,,34.2640088,132.5170959,80205 2,,0,,,,
80207 1,,猪山隧道,,34.2693673,132.5155061,80207 1,,0,,,,
80207 2,,猪山隧道,,34.2690919,132.5154799,80207 2,,0,,,,
80208 1,,汐見町,,34.2801363,132.5191752,80208 1,,0,,,,
80208 2,,汐見町,,34.2805146,132.5192884,80208 2,,0,,,,
80209 1,,大屋橋,,34.2877388,132.5167235,80209 1,,0,,,,
80209 2,,大屋橋,,34.2877103,132.5169078,80209 2,,0,,,,
80210 1,,呉ポートピア,,34.2927452,132.511867,80210 1,,0,,,,
80210 2,,呉ポートピア,,34.2923251,132.5123883,80210 2,,0,,,,
80211 1,,天応福浦,,34.2933477,132.5104765,80211 1,,0,,,,
80212 2,,天応福浦・天応桟橋,,34.29211537,132.5096739,80212 2,,0,,,,
80230 2,,大新開,,34.233774,132.6231863,80230 2,,0,,,,
80231 1,,広商店街,,34.2349025,132.6238784,80231 1,,0,,,,
80231 2,,広商店街,,34.2357676,132.6240055,80231 2,,0,,,,
80232 1,,北大新開,,34.2375754,132.6249818,80232 1,,0,,,,
80232 2,,北大新開,,34.2376963,132.6248041,80232 2,,0,,,,
80233 1,,中新開,,34.2405308,132.6263123,80233 1,,0,,,,
80233 2,,中新開,,34.2413462,132.6264461,80233 2,,0,,,,
80234 1,,弁天橋,,34.2433905,132.6277297,80234 1,,0,,,,
80234 2,,弁天橋,,34.2442233,132.6280836,80234 2,,0,,,,
80235 1,,塩焼,,34.2484077,132.6291909,80235 1,,0,,,,
80235 2,,塩焼,,34.2491172,132.6295529,80235 2,,0,,,,
80236 1,,町田,,34.2538724,132.6303427,80236 1,,0,,,,
80236 2,,町田,,34.2526169,132.6301544,80236 2,,0,,,,
80237 1,,徳丸,,34.2589773,132.6298778,80237 1,,0,,,,
80237 2,,徳丸,,34.2588549,132.6297763,80237 2,,0,,,,
80238 1,,下石内,,34.2644178,132.6312642,80238 1,,0,,,,
80238 2,,下石内,,34.2641501,132.6310585,80238 2,,0,,,,
80239 1,,石内橋,,34.2662758,132.6320173,80239 1,,0,,,,
80239 2,,石内橋,,34.2655965,132.6316046,80239 2,,0,,,,
80240 1,,石内,,34.2675892,132.6338776,80240 1,,0,,,,
80240 2,,石内,,34.2679327,132.6343158,80240 2,,0,,,,
80241 1,,上石内,,34.2697798,132.6356062,80241 1,,0,,,,
80241 2,,上石内,,34.270107,132.6355927,80241 2,,0,,,,
80242 1,,大津江橋,,34.2791316,132.6379791,80242 1,,0,,,,
80242 2,,大津江橋,,34.278935,132.6378342,80242 2,,0,,,,
80243 1,,広二級峡,,34.2860644,132.6332306,80243 1,,0,,,,
80243 2,,広二級峡,,34.2856395,132.6330287,80243 2,,0,,,,
80244 1,,下高,,34.2870117,132.6334679,80244 1,,0,,,,1
80244 2,,下高,,34.2869985,132.6332713,80244 2,,0,,,,2
80245 1,,広島文化学園大学,,34.2889451,132.6386973,80245 1,,0,,,,
80246 1,,大積橋,,34.2900361,132.6345905,80246 1,,0,,,,
80246 2,,大積橋,,34.2901645,132.6345512,80246 2,,0,,,,
80247 1,,渡川,,34.2941523,132.6357123,80247 1,,0,,,,
80247 2,,渡川,,34.293637,132.6356097,80247 2,,0,,,,
80248 1,,浜田橋,,34.2987864,132.6366032,80248 1,,0,,,,
80248 2,,浜田橋,,34.2992219,132.637483,80248 2,,0,,,,
80249 1,,郷原,,34.3014828,132.6429225,80249 1,,0,,,,
80249 2,,郷原,,34.3013762,132.6425892,80249 2,,0,,,,
80250 1,,岡条,,34.3053318,132.6409104,80250 1,,0,,,,
80250 2,,岡条,,34.3052654,132.6408464,80250 2,,0,,,,
80251 1,,空条,,34.3084887,132.6426136,80251 1,,0,,,,
80251 2,,空条,,34.308566,132.6425597,80251 2,,0,,,,
80252 1,,シメノ松,,34.3104886,132.6450369,80252 1,,0,,,,
80252 2,,シメノ松,,34.3104958,132.6449063,80252 2,,0,,,,
80253 1,,兼沢,,34.3136763,132.6473908,80253 1,,0,,,,
80253 2,,兼沢,,34.3136902,132.6473468,80253 2,,0,,,,
80254 1,,津江口,,34.3152793,132.6476824,80254 1,,0,,,,
80254 2,,津江口,,34.3153621,132.6477755,80254 2,,0,,,,
80255 1,,下黒瀬,,34.318115,132.6509366,80255 1,,0,,,,
80255 2,,下黒瀬,,34.3181556,132.6508652,80255 2,,0,,,,
80256 1,,切田,,34.3206927,132.6545071,80256 1,,0,,,,
80256 2,,切田,,34.3208588,132.6548145,80256 2,,0,,,,
80257 1,,兼広,,34.3223938,132.6617552,80257 1,,0,,,,
80257 2,,兼広,,34.3226677,132.6619937,80257 2,,0,,,,
80258 1,,西楢原,,34.3241443,132.6643021,80258 1,,0,,,,
80258 2,,西楢原,,34.3242065,132.6642644,80258 2,,0,,,,
80259 1,,楢原中央,,34.3240164,132.6664416,80259 1,,0,,,,
80259 2,,楢原中央,,34.3248503,132.6660459,80259 2,,0,,,,
80260 1,,北上保田,,34.3213232,132.6682189,80260 1,,0,,,,
80260 2,,北上保田,,34.3211513,132.668471,80260 2,,0,,,,
80261 1,,広島文化学園大学入口,,34.2883114,132.6350708,80261 1,,0,,,,
80261 2,,広島文化学園大学入口,,34.2883789,132.6349756,80261 2,,0,,,,
80262 1,,グリーンタウン郷原入口,,34.3011001,132.6459824,80262 1,,0,,,,
80262 2,,グリーンタウン郷原入口,,34.3010668,132.6461248,80262 2,,0,,,,
80263 1,,グリーンタウン郷原,,34.29799,132.6475804,80263 1,,0,,,,
80263 2,,グリーンタウン郷原,,34.2986233,132.6480745,80263 2,,0,,,,
80264 1,,野呂山学園前,,34.2974856,132.6488775,80264 1,,0,,,,
80264 2,,野呂山学園前,,34.2974989,132.6487863,80264 2,,0,,,,
80265 1,,グリーンヒル郷原,,34.3001531,132.6523869,80265 1,,0,,,,
80302 1,,二河公園,,34.2536237,132.561142,80302 1,,0,,,,
80302 2,,二河公園,,34.2528084,132.5612952,80302 2,,0,,,,
80303 1,,上山手橋,,34.2555847,132.5608309,80303 1,,0,,,,
80303 2,,上山手橋,,34.2557403,132.5606441,80303 2,,0,,,,
80304 1,,上二河町,,34.2572556,132.5618102,80304 1,,0,,,,
80304 2,,上二河町,,34.2601485,132.5617878,80304 2,,0,,,,
80305 1,,二河峡隧道,,34.2684711,132.5572119,80305 1,,0,,,,
80305 2,,二河峡隧道,,34.2684082,132.557212,80305 2,,0,,,,
80306 1,,猿見橋,,34.2695453,132.5565052,80306 1,,0,,,,
80306 2,,猿見橋,,34.269161,132.5561111,80306 2,,0,,,,
80307 1,,松ヶ丘団地,,34.27862,132.5513443,80307 1,,0,,,,
80307 2,,松ヶ丘団地,,34.2788303,132.5507338,80307 2,,0,,,,
80308 1,,野間園前,,34.2808091,132.5504149,80308 1,,0,,,,
80308 2,,野間園前,,34.2809506,132.550171,80308 2,,0,,,,
80309 1,,桜ヶ丘団地,,34.2835292,132.5506972,80309 1,,0,,,,
80309 2,,桜ヶ丘団地,,34.2846721,132.5510908,80309 2,,0,,,,
80310 1,,政畝団地入口,,34.2867772,132.5527416,80310 1,,0,,,,
80310 2,,政畝団地入口,,34.2875392,132.5531043,80310 2,,0,,,,
80311 1,,兎の口,,34.2925864,132.5553789,80311 1,,0,,,,
80311 2,,兎の口,,34.2916907,132.5551764,80311 2,,0,,,,
80313 2,,宮ヶ迫団地入口,,34.296288,132.5545461,80313 2,,0,,,,
80329 1,,焼山下呉地,,34.2930119,132.5642776,80329 1,,0,,,,
80329 2,,焼山下呉地,,34.2932573,132.5643748,80329 2,,0,,,,
80330 1,,第３団地入口,,34.2909444,132.5662681,80330 1,,0,,,,
80330 2,,第３団地入口,,34.2911031,132.5662148,80330 2,,0,,,,
80331 1,,南ハイツ入口,,34.2894038,132.5681039,80331 1,,0,,,,
80331 2,,南ハイツ入口,,34.2894888,132.5681831,80331 2,,0,,,,
80332 1,,二瀬川橋,,34.2882391,132.570269,80332 1,,0,,,,
80332 2,,二瀬川橋,,34.2883624,132.5703023,80332 2,,0,,,,
80333 1,,久次郎原,,34.2876554,132.5726147,80333 1,,0,,,,
80333 2,,久次郎原,,34.28771694,132.5727522,80333 2,,0,,,,
80334 1,,戸石,,34.2868293,132.5766915,80334 1,,0,,,,
80334 2,,戸石,,34.2869944,132.5769879,80334 2,,0,,,,
80335 1,,栃原口,,34.2879965,132.5800757,80335 1,,0,,,,
80335 2,,栃原口,,34.2880337,132.5798406,80335 2,,0,,,,
80336 1,,かもんじょう,,34.28895028,132.5810514,80336 1,,0,,,,
80336 2,,かもんじょう,,34.2893722,132.5811755,80336 2,,0,,,,
80337 1,,苗代,,34.2913969,132.5868887,80337 1,,0,,,,
80337 2,,苗代,,34.2920935,132.5872004,80337 2,,0,,,,
80338 1,,苗代西条,,34.2972694,132.5843518,80338 1,,0,,,,
80338 2,,苗代西条,,34.2974556,132.5842411,80338 2,,0,,,,
80339 2,,苗代下条,,34.3016535,132.5863181,80339 2,,0,,,,
80407 2,,昭和北小学校前,,34.3046221,132.5541536,80407 2,,0,,,,
80408 2,,本庄ハイツ入口,,34.30319832,132.5557195,80408 2,,0,,,,
80442 1,,中央１丁目,,34.24629,132.5595,80442 1,,0,,,,
80442 2,,中央１丁目,,34.2462493,132.5597642,80442 2,,0,,,,
80443 1,,呉郵便局前,,34.2466723,132.5596185,80443 1,,0,,,,1
80443 2,,呉郵便局前,,34.2474889,132.5600072,80443 2,,0,,,,2
80444 1,,中央２丁目,,34.24523794,132.5610218,80444 1,,0,,,,1
80444 2,,中央２丁目,,34.2452858,132.5611497,80444 2,,0,,,,2
80444 3,,中央２丁目,,34.2452459,132.5619113,80444 3,,0,,,,3
80444 4,,中央２丁目,,34.2459336,132.562263,80444 4,,0,,,,4
80445 1,,中通２丁目,,34.2439259,132.5629006,80445 1,,0,,,,
80445 2,,中通２丁目,,34.2440104,132.5629797,80445 2,,0,,,,
80446 1,,中央３丁目,,34.2467677,132.5619998,80446 1,,0,,,,1
80446 2,,中央３丁目,,34.24672,132.5623216,80446 2,,0,,,,2
80446 3,,中央３丁目,,34.2465469,132.5632249,80446 3,,0,,,,3
80446 4,,中央３丁目,,34.2472456,132.563591,80446 4,,0,,,,4
80447 1,,中通３丁目,,34.245128,132.5642932,80447 1,,0,,,,
80447 2,,中通３丁目,,34.24482139,132.5650048,80447 2,,0,,,,
80448 1,,西中央３丁目,,34.2488843,132.5618671,80448 1,,0,,,,
80448 2,,西中央３丁目,,34.2490908,132.5616614,80448 2,,0,,,,
80450 1,,呉市役所前,,34.2481901,132.5657872,80450 1,,0,,,,1
80450 2,,呉市役所前,,34.2483778,132.5656352,80450 2,,0,,,,2
80450 3,,呉市役所前,,34.2491726,132.5663567,80450 3,,0,,,,3
80451 1,,中央６丁目,,34.2504864,132.5673758,80451 1,,0,,,,
80451 2,,中央６丁目,,34.2511863,132.5679775,80451 2,,0,,,,
80452 2,,明神橋,,34.2515308,132.5696665,80452 2,,0,,,,
80452 3,,明神橋,,34.2514641,132.5683657,80452 3,,0,,,,
80453 1,,植木屋筋,,34.2560381,132.5721813,80453 1,,0,,,,
80453 2,,植木屋筋,,34.2561356,132.5712706,80453 2,,0,,,,
80454 1,,鉄管道路,,34.2573191,132.572789,80454 1,,0,,,,
80454 2,,鉄管道路,,34.2573024,132.571514,80454 2,,0,,,,
80455 1,,辰川,,34.26023654,132.5727534,80455 1,,0,,,,
80456 1,,吾妻１丁目,,34.251692,132.5781584,80456 1,,0,,,,
80456 2,,吾妻１丁目,,34.2522396,132.5781055,80456 2,,0,,,,
80457 1,,伏原東,,34.2530885,132.5770073,80457 1,,0,,,,
80457 2,,伏原東,,34.2531342,132.5771986,80457 2,,0,,,,
80458 1,,伏原２丁目,,34.2536734,132.575815,80458 1,,0,,,,
80458 2,,伏原２丁目,,34.254074,132.5753039,80458 2,,0,,,,
80459 1,,東中央４丁目,,34.2545128,132.5726386,80459 1,,0,,,,
80459 2,,東中央４丁目,,34.2547339,132.5720059,80459 2,,0,,,,
80460 1,,東中央３丁目,,34.2545844,132.5702961,80460 1,,0,,,,1
80460 2,,東中央３丁目,,34.2546249,132.570085,80460 2,,0,,,,2
80460 4,,東中央３丁目,,34.254466,132.5706575,80460 4,,0,,,,4
80461 1,,郷町,,34.2537849,132.5688303,80461 1,,0,,,,
80461 2,,郷町,,34.2538073,132.5686425,80461 2,,0,,,,
80462 1,,東片山町,,34.252333,132.5661231,80462 1,,0,,,,
80462 2,,東片山町,,34.2525796,132.5660539,80462 2,,0,,,,
80472 1,,長迫小学校下,,34.2501066,132.5783369,80472 1,,0,,,,
80472 2,,長迫小学校下,,34.2504508,132.5784483,80472 2,,0,,,,
80473 1,,長迫町,,34.2476923,132.577722,80473 1,,0,,,,
80473 2,,長迫町,,34.2472936,132.5774483,80473 2,,0,,,,
80474 1,,溝路町,,34.2464216,132.5763137,80474 1,,0,,,,
80474 2,,溝路町,,34.2462681,132.5763247,80474 2,,0,,,,
80475 1,,和庄１丁目,,34.2454638,132.5741916,80475 1,,0,,,,
80475 2,,和庄１丁目,,34.2454203,132.5742946,80475 2,,0,,,,
80476 1,,和庄登町,,34.2435596,132.5723276,80476 1,,0,,,,
80476 2,,和庄登町,,34.2435873,132.5724824,80476 2,,0,,,,
80487 1,,畑,,34.1644893,132.5277177,80487 1,,0,,,,
80487 2,,畑,,34.16369608,132.527245,80487 2,,0,,,,
810 1,,畑口,,34.3401772,132.2962596,810 1,,0,,,,
810 2,,畑口,,34.3400329,132.2963616,810 2,,0,,,,
81010 0,,宮島口,,34.311459713776335591287,132.3045566745328510021520,81010 0,,0,,,,
8170 1,,巴橋西詰,,34.8077548,132.8466445,8170 1,,0,,,,
8170 2,,巴橋西詰,,34.8075531,132.8468018,8170 2,,0,,,,
8180 1,,三次稲荷町,,34.8081954,132.8449707,8180 1,,0,,,,
8180 2,,三次稲荷町,,34.8079531,132.8451554,8180 2,,0,,,,
8190 1,,三次小学校前,,34.8114432,132.8444285,8190 1,,0,,,,
8190 2,,三次小学校前,,34.811449,132.8443379,8190 2,,0,,,,
8191 1,,和知,,34.8116942,132.9309808,8191 1,,0,,,,
8191 2,,和知,,34.8120002,132.9308341,8191 2,,0,,,,
8192 1,,庄原中学校前,,34.8551461,133.0198397,8192 1,,0,,,,
8192 2,,庄原中学校前,,34.8545567,133.0201585,8192 2,,0,,,,
8194 2,,県立広島大学,,34.8255376,132.9774877,8194 2,,0,,,,
8195 1,,桜花の郷ラフォーレ庄原,,34.8517566,133.0317477,8195 1,,0,,,,
820 1,,上畑口,,34.3422518,132.2931811,820 1,,0,,,,
820 2,,上畑口,,34.3424751,132.2928181,820 2,,0,,,,
8202 1,,庄原市役所,,34.8589414,133.0170867,8202 1,,0,,,,
8202 2,,庄原市役所,,34.85779706,133.0174723,8202 2,,0,,,,
830 1,,半目籔,,34.3443905,132.2902818,830 1,,0,,,,
830 2,,半目籔,,34.3445064,132.2893237,830 2,,0,,,,
8300 1,,庄原駅,,34.8621133,133.0164722,8300 1,,0,,,,
840 1,,馬が原,,34.3471801,132.2842212,840 1,,0,,,,
840 2,,馬が原,,34.3471354,132.2841188,840 2,,0,,,,
850 1,,黒折,,34.3491486,132.2792496,850 1,,0,,,,
850 2,,黒折,,34.3491241,132.2791721,850 2,,0,,,,
860 1,,下明石,,34.3517989,132.2734197,860 1,,0,,,,
860 2,,下明石,,34.3517514,132.2733801,860 2,,0,,,,
870 1,,明石,,34.354232,132.2705375,870 1,,0,,,,
870 2,,明石,,34.354181,132.2696871,870 2,,0,,,,
8760 1,,安佐北区民文化センター入口,,34.52265733,132.5071801,8760 1,,0,,,,
8760 2,,安佐北区民文化センター入口,,34.52277397,132.5066468,8760 2,,0,,,,
8770 1,,福王寺口,,34.52332388,132.504797,8770 1,,0,,,,
8770 2,,福王寺口,,34.5232239,132.504847,8770 2,,0,,,,
8780 1,,下大毛寺,,34.52510692,132.4986974,8780 1,,0,,,,
8780 2,,下大毛寺,,34.52499027,132.4986974,8780 2,,0,,,,
8790 1,,中大毛寺,,34.5259901,132.4955643,8790 1,,0,,,,
8790 2,,中大毛寺,,34.52604009,132.4950976,8790 2,,0,,,,
880 1,,上峠,,34.3560339,132.2499609,880 1,,0,,,,
880 2,,上峠,,34.3559062,132.2501992,880 2,,0,,,,
8800 1,,上大毛寺,,34.52903967,132.489298,8800 1,,0,,,,
8800 2,,上大毛寺,,34.52890635,132.4894146,8800 2,,0,,,,
8810 1,,大毛寺口,,34.53118937,132.4851649,8810 1,,0,,,,
8810 2,,大毛寺口,,34.53097273,132.4853316,8810 2,,0,,,,
8820 1,,下勝木,,34.53373901,132.4801985,8820 1,,0,,,,
8820 2,,下勝木,,34.53362235,132.4802152,8820 2,,0,,,,
8830 1,,上勝木,,34.53527214,132.4781153,8830 1,,0,,,,
8830 2,,上勝木,,34.53577207,132.4771653,8830 2,,0,,,,
8840 1,,下行森,,34.53640523,132.4711325,8840 1,,0,,,,
8840 2,,下行森,,34.53623858,132.4711325,8840 2,,0,,,,
8850 1,,上行森,,34.5415879,132.4647994,8850 1,,0,,,,
8850 2,,上行森,,34.5411391,132.4653226,8850 2,,0,,,,
8860 1,,幕の内東,,34.5421179,132.4627671,8860 1,,0,,,,
8860 2,,幕の内東,,34.54200446,132.461233,8860 2,,0,,,,
8870 1,,広島北インター入口,,34.5455877,132.4482729,8870 1,,0,,,,
8870 2,,広島北インター入口,,34.5451378,132.4484571,8870 2,,0,,,,
8880 1,,飯室,,34.5516318,132.4463991,8880 1,,0,,,,
8880 2,,飯室,,34.5513032,132.4462339,8880 2,,0,,,,
890 1,,グランドハイツ前,,34.3562801,132.2456947,890 1,,0,,,,
890 2,,グランドハイツ前,,34.3561181,132.245724,890 2,,0,,,,
8900 1,,清和中学校前,,34.5487153,132.4406834,8900 1,,0,,,,
8900 2,,清和中学校前,,34.5482593,132.4397835,8900 2,,0,,,,
89172 1,,仁方駅南口,,34.2214698,132.6551659,89172 1,,0,,,,
8920 1,,宇津,,34.5446117,132.4317307,8920 1,,0,,,,
8920 2,,宇津,,34.5445393,132.4317215,8920 2,,0,,,,
8930 1,,飯室西,,34.5444142,132.429926,8930 1,,0,,,,
8930 2,,飯室西,,34.5442717,132.4295808,8930 2,,0,,,,
8940 1,,油木,,34.5401921,132.4216181,8940 1,,0,,,,
8940 2,,油木,,34.5401559,132.421667,8940 2,,0,,,,
8950 1,,布,,34.533444,132.4108479,8950 1,,0,,,,
8950 2,,布,,34.5333722,132.4108113,8950 2,,0,,,,
8960 1,,上布,,34.5338623,132.4079927,8960 1,,0,,,,
8960 2,,上布,,34.5335939,132.408485,8960 2,,0,,,,
8970 1,,小浜,,34.5475634,132.4028103,8970 1,,0,,,,
8970 2,,小浜,,34.547435,132.402622,8970 2,,0,,,,
8980 1,,槙原,,34.5454958,132.3947357,8980 1,,0,,,,
8980 2,,槙原,,34.5454564,132.3946393,8980 2,,0,,,,
8990 1,,追崎,,34.5609302,132.385651,8990 1,,0,,,,
900 1,,新生,,34.357476,132.2422023,900 1,,0,,,,
900 2,,新生,,34.3576135,132.2416759,900 2,,0,,,,
9000 1,,船場,,34.5546535,132.3801713,9000 1,,0,,,,
9000 2,,船場,,34.554557,132.3801761,9000 2,,0,,,,
9030 1,,津都見,,34.5579171,132.379624,9030 1,,0,,,,
9030 2,,津都見,,34.5579448,132.3795564,9030 2,,0,,,,
9040 1,,澄合,,34.5627052,132.372991,9040 1,,0,,,,
9040 2,,澄合,,34.5626648,132.3721514,9040 2,,0,,,,
9050 1,,西澄合,,34.5622016,132.3702499,9050 1,,0,,,,
9050 2,,西澄合,,34.5619572,132.3699014,9050 2,,0,,,,
9060 1,,程原,,34.5599456,132.3642087,9060 1,,0,,,,
9060 2,,程原,,34.5599059,132.3642251,9060 2,,0,,,,
9070 1,,宇佐,,34.5563178,132.3595142,9070 1,,0,,,,
9070 2,,宇佐,,34.5558784,132.3595467,9070 2,,0,,,,
9080 1,,津伏,,34.553135,132.3563694,9080 1,,0,,,,
9080 2,,津伏,,34.5530972,132.3563224,9080 2,,0,,,,
9090 1,,久日市,,34.5529478,132.3497783,9090 1,,0,,,,
9090 2,,久日市,,34.5531354,132.3503279,9090 2,,0,,,,
910 1,,佐伯工業団地入口,,34.3587505,132.2388184,910 1,,0,,,,
910 2,,佐伯工業団地入口,,34.3586071,132.2388033,910 2,,0,,,,
9100 1,,林病院,,34.5519269,132.3475738,9100 1,,0,,,,
9100 2,,林病院,,34.5518696,132.3476034,9100 2,,0,,,,
9110 1,,水内口,,34.5524004,132.3433291,9110 1,,0,,,,
9110 2,,水内口,,34.5523802,132.34324,9110 2,,0,,,,
9120 1,,坪野発電所,,34.5556696,132.3414603,9120 1,,0,,,,
9120 2,,坪野発電所,,34.5556211,132.3414183,9120 2,,0,,,,
9130 1,,坪野,,34.5558283,132.3371375,9130 1,,0,,,,
9130 2,,坪野,,34.5557668,132.3371443,9130 2,,0,,,,
9140 1,,善福寺前,,34.5556414,132.3333303,9140 1,,0,,,,
9140 2,,善福寺前,,34.5555914,132.3332874,9140 2,,0,,,,
9150 1,,吉が瀬,,34.5593417,132.3324369,9150 1,,0,,,,
9150 2,,吉が瀬,,34.5593885,132.3323932,9150 2,,0,,,,
9160 1,,光石,,34.5634592,132.3310916,9160 1,,0,,,,
9160 2,,光石,,34.5633978,132.3310748,9160 2,,0,,,,
9170 1,,向光石,,34.5652201,132.3257407,9170 1,,0,,,,
9170 2,,向光石,,34.5651985,132.3256836,9170 2,,0,,,,
9180 1,,附地,,34.5656519,132.3175877,9180 1,,0,,,,
9180 2,,附地,,34.5656864,132.3174926,9180 2,,0,,,,
9190 1,,砂が瀬,,34.56971569,132.3198768,9190 1,,0,,,,
9190 2,,砂が瀬,,34.5697303,132.3198054,9190 2,,0,,,,
920 1,,峠神社前,,34.3601303,132.236598,920 1,,0,,,,
920 2,,峠神社前,,34.3599478,132.236629,920 2,,0,,,,
9200 1,,下津浪,,34.5779347,132.3235227,9200 1,,0,,,,
9200 2,,下津浪,,34.5778359,132.3235241,9200 2,,0,,,,
9210 1,,津浪,,34.5799425,132.321706,9210 1,,0,,,,
9210 2,,津浪,,34.5802794,132.321257,9210 2,,0,,,,
9220 1,,上津浪,,34.5818922,132.3205658,9220 1,,0,,,,
9220 2,,上津浪,,34.5832724,132.3202287,9220 2,,0,,,,
9230 1,,辻の河原大橋,,34.5880705,132.3210798,9230 1,,0,,,,
9230 2,,辻の河原大橋,,34.5880817,132.3208482,9230 2,,0,,,,
9240 1,,遅越,,34.596346,132.3208395,9240 1,,0,,,,
9240 2,,遅越,,34.5959876,132.3207432,9240 2,,0,,,,
9250 1,,香草,,34.598012,132.3228696,9250 1,,0,,,,
9250 2,,香草,,34.5980079,132.3228018,9250 2,,0,,,,
9260 1,,上香草,,34.6002517,132.3224805,9260 1,,0,,,,
9260 2,,上香草,,34.6007554,132.3224281,9260 2,,0,,,,
9270 1,,加計新町,,34.6098292,132.3233929,9270 1,,0,,,,
9270 2,,加計新町,,34.6099035,132.3233918,9270 2,,0,,,,
9280 1,,加計中央,,34.6103069,132.3205567,9280 1,,0,,,,
9280 2,,加計中央,,34.6101704,132.3206715,9280 2,,0,,,,
9290 1,,巴町,,34.6112213,132.3185302,9290 1,,0,,,,
9290 2,,巴町,,34.6112704,132.3185848,9290 2,,0,,,,
930 1,,下峠,,34.3598773,132.2318152,930 1,,0,,,,
930 2,,下峠,,34.3597915,132.2318314,930 2,,0,,,,
9310 1,,加計山崎,,34.6104291,132.3147248,9310 1,,0,,,,
9310 2,,加計山崎,,34.6103754,132.3147597,9310 2,,0,,,,
9320 1,,下木坂,,34.6068625,132.3098851,9320 1,,0,,,,
9320 2,,下木坂,,34.6068387,132.3099562,9320 2,,0,,,,
9330 1,,木坂,,34.6024488,132.3060432,9330 1,,0,,,,
9330 2,,木坂,,34.6025001,132.3062834,9330 2,,0,,,,
9340 1,,鮎が平,,34.5982118,132.3000768,9340 1,,0,,,,
9340 2,,鮎が平,,34.5982112,132.300142,9340 2,,0,,,,
9350 1,,赤羽,,34.5924484,132.2972338,9350 1,,0,,,,
9350 2,,赤羽,,34.5923937,132.2972361,9350 2,,0,,,,
9360 1,,殿賀,,34.58807992,132.2928782,9360 1,,0,,,,
9360 2,,殿賀,,34.5880092,132.2929264,9360 2,,0,,,,
9370 1,,安芸太田病院,,34.5875229,132.2915889,9370 1,,0,,,,
9370 2,,安芸太田病院,,34.587441,132.2916496,9370 2,,0,,,,
9380 1,,上殿口,,34.58481,132.2828065,9380 1,,0,,,,
9380 2,,上殿口,,34.5847685,132.2828554,9380 2,,0,,,,
940 1,,玖島分れ,,34.3594542,132.2290255,940 1,,0,,,,
940 2,,玖島分れ,,34.3592701,132.2288037,940 2,,0,,,,
9400 1,,上殿下,,34.5813334,132.2772626,9400 1,,0,,,,
9400 2,,上殿下,,34.5812958,132.2773037,9400 2,,0,,,,
9410 1,,上殿長田,,34.5796063,132.2743938,9410 1,,0,,,,
9410 2,,上殿長田,,34.579574,132.2744324,9410 2,,0,,,,
9420 1,,上殿中央,,34.5779063,132.2713194,9420 1,,0,,,,
9420 2,,上殿中央,,34.5779016,132.2714613,9420 2,,0,,,,
9430 1,,戸河内インター北,,34.5769244,132.2704334,9430 1,,0,,,,
9430 2,,戸河内インター北,,34.5768144,132.2705539,9430 2,,0,,,,
9440 1,,箕角下,,34.5742544,132.2646884,9440 1,,0,,,,
9440 2,,箕角下,,34.57418092,132.2647146,9440 2,,0,,,,
9490 1,,下土居,,34.5755168,132.244831,9490 1,,0,,,,
9490 2,,下土居,,34.5754181,132.2447976,9490 2,,0,,,,
950 1,,友和学校,,34.3588389,132.2271282,950 1,,0,,,,
950 2,,友和学校,,34.3582955,132.226184,950 2,,0,,,,
9500 1,,戸河内中土居,,34.5741325,132.2406997,9500 1,,0,,,,
9500 2,,戸河内中土居,,34.5740653,132.2407193,9500 2,,0,,,,
9510 1,,戸河内土居,,34.5734048,132.2381415,9510 1,,0,,,,
9510 2,,戸河内土居,,34.5733345,132.2381858,9510 2,,0,,,,
9520 1,,上土居,,34.5729058,132.2339811,9520 1,,0,,,,
9520 2,,上土居,,34.5727655,132.2343834,9520 2,,0,,,,
9540 1,,戸河内小学校,,34.5740093,132.2304447,9540 1,,0,,,,
9540 2,,戸河内小学校,,34.5738308,132.2306766,9540 2,,0,,,,
9560 1,,戸河内上本郷,,34.5789198,132.2242717,9560 1,,0,,,,
9560 2,,戸河内上本郷,,34.57936298,132.2234511,9560 2,,0,,,,
9581 1,,野為橋,,34.5844038,132.2202063,9581 1,,0,,,,
9581 2,,野為橋,,34.584422,132.2201623,9581 2,,0,,,,
9590 1,,戸河内下本郷,,34.5755353,132.2292303,9590 1,,0,,,,
9590 2,,戸河内下本郷,,34.5751432,132.2292929,9590 2,,0,,,,
960 1,,友和岩組分れ,,34.3584523,132.2212658,960 1,,0,,,,
960 2,,友和岩組分れ,,34.3583878,132.221267,960 2,,0,,,,
9600 1,,安芸太田町役場,,34.5770607,132.227146,9600 1,,0,,,,
9600 2,,安芸太田町役場,,34.5771245,132.2268277,9600 2,,0,,,,
9610 1,,新明神橋,,34.5819452,132.2202585,9610 1,,0,,,,
9610 2,,新明神橋,,34.5815746,132.2204645,9610 2,,0,,,,
9620 1,,戸河内槙原,,34.5899474,132.2181399,9620 1,,0,,,,
9620 2,,戸河内槙原,,34.5899233,132.2180852,9620 2,,0,,,,
9630 1,,戸河内落合,,34.5971002,132.2164478,9630 1,,0,,,,
9630 2,,戸河内落合,,34.5970656,132.2163703,9630 2,,0,,,,
9640 1,,柴木橋,,34.5967314,132.2134652,9640 1,,0,,,,
9640 2,,柴木橋,,34.5966749,132.2134677,9640 2,,0,,,,
9650 1,,柴木,,34.5976507,132.210334,9650 1,,0,,,,
9650 2,,柴木,,34.5976393,132.2102741,9650 2,,0,,,,
9660 1,,三段峡,,34.5993149,132.209331,9660 1,,0,,,,
970 1,,友和公民館前,,34.3583631,132.2196707,970 1,,0,,,,
970 2,,友和公民館前,,34.3582899,132.2193883,970 2,,0,,,,
980 1,,友和郵便局,,34.358268,132.2176232,980 1,,0,,,,
980 2,,友和郵便局,,34.3582295,132.2182936,980 2,,0,,,,
990 1,,友田,,34.35756987,132.2142287,990 1,,0,,,,
990 2,,友田,,34.3574843,132.2141134,990 2,,0,,,,
99101 1,,河内,,34.416615991038453537581,132.3536810857914654188502,99101 1,,0,,,,
99101 2,,河内,,34.416749309402538976323,132.3536477493841466634056,99101 2,,0,,,,
99102 1,,河内小学校,,34.415416099670711489989,132.3525479018394598262868,99102 1,,0,,,,
99102 2,,河内小学校,,34.415466092661508735828,132.3524479082028259483452,99102 2,,0,,,,
0001,,広島バスセンター,,34.3963108,132.455932,,,1,,,,
